     2.11           OBSERVATION DATA    M (MIXED)           RINEX VERSION / TYPE
teqc  2012Jun6      Gps manager         20130516 22:54:52UTCPGM / RUN BY / DATE
Linux 2.4.21-27.ELsmp|Opteron|gcc|Linux x86_64|=+           COMMENT
BIT 2 OF LLI FLAGS DATA COLLECTED UNDER A/S CONDITION       COMMENT
-Unknown-                                                   MARKER NAME
-Unknown-           -Unknown-                               OBSERVER / AGENCY
T225125             TPS GB-1000         3.4 May,13,2009     REC # / TYPE / VERS
-Unknown-           -Unknown-                               ANT # / TYPE
  4641297.6231  1868462.4098  3942784.8556                  APPROX POSITION XYZ
        0.0000        0.0000        0.0000                  ANTENNA: DELTA H/E/N
     1     1                                                WAVELENGTH FACT L1/2
     7    L1    L2    C1    P1    P2    S1    S2            # / TYPES OF OBSERV
    30.0000                                                 INTERVAL
    16                                                      LEAP SECONDS
Forced Modulo Decimation to 30 seconds                      COMMENT
 SNR is mapped to RINEX snr flag value [0-9]                COMMENT
  L1 & L2: min(max(int(snr_dBHz/6), 0), 9)                  COMMENT
pseudorange smoothing corrections not applied               COMMENT
rx board ID: 8RMZN4LGWZK                                    COMMENT
  2013     2     4     8    32    0.0000000     GPS         TIME OF FIRST OBS
                                                            END OF HEADER
 13  2  4  8 32  0.0000000  0 13G01G03G14G06R19G22R18R20G20R04G11R05
                                G19
 112702799.668 7  87820369.75346  21446631.631    21446630.782    21446636.529
        46.000          37.0004
 120144025.624 7  93618729.35145  22862648.993    22862648.334    22862653.198
        46.000          30.0004
 114701033.922 7  89377432.89045  21826882.248    21826881.434    21826883.990
        47.000          34.0004
 124671912.766 7  97146948.18744  23724278.223    23724277.069    23724283.229
        42.000          25.0004
 102244936.232 8  79523836.736 7  19113606.542    19113605.520    19113604.935
        49.000          46.000
 122393763.101 7  95371766.83344  23290757.794    23290757.247    23290759.353
        45.000          29.0004
 119268625.486 7  92764483.482 6  22343022.296    22343023.569    22343027.867
        43.000          39.000
 112361914.493 6  87392602.893 6  21012240.426    21012239.288    21012240.579
        39.000          41.000
 119917009.400 7  93441832.58344  22819450.128    22819448.336    22819453.125
        44.000          28.0004
 105190538.817 8  81814861.901 7  19643587.085    19643587.439    19643585.601
        48.000          45.000
 106839745.623 8  83251755.21646  20330929.279    20330928.384    20330930.160
        49.000          40.0004
 108451934.758 8  84351500.842 7  20288171.395    20288171.180    20288172.723
        49.000          45.000
 111332104.403 8  86752298.19346  21185797.934    21185796.082    21185798.068
        49.000          40.0004
 13  2  4  8 32 30.0000000  0 13G01G03G14G06R19G22R18R20G20R04G11R05
                                G19
 112613535.817 7  87750813.49846  21429645.514    21429644.632    21429650.144
        47.000          37.0004
 120228292.869 7  93684392.04545  22878684.927    22878684.020    22878689.141
        46.000          30.0004
 114722147.290 8  89393884.84645  21830899.901    21830899.241    21830902.175
        49.000          33.0004
 124754174.224 7  97211047.88644  23739931.141    23739931.565    23739937.534
        43.000          25.0004
 102241521.340 8  79521180.686 7  19112968.254    19112967.478    19112966.671
        49.000          45.000
 122452381.261 7  95417443.22944  23301912.994    23301911.567    23301914.429
        45.000          29.0004
 119366173.304 7  92840353.887 6  22361296.528    22361297.634    22361301.822
        42.000          39.000
 112240846.125 6  87298438.618 6  20989598.686    20989599.156    20989600.056
        39.000          40.000
 119813934.977 7  93361514.86844  22799835.420    22799834.564    22799839.047
        46.000          28.0004
 105218946.106 8  81836956.442 7  19648892.519    19648892.620    19648890.698
        49.000          46.000
 106780234.626 8  83205382.99846  20319604.786    20319604.040    20319605.957
        51.000          41.0004
 108373253.692 8  84290304.488 7  20273452.126    20273452.215    20273454.156
        48.000          45.000
 111373185.826 8  86784309.65346  21193615.479    21193613.924    21193615.774
        50.000          40.0004
 13  2  4  8 33  0.0000000  0 13G01G03G14G06R19G22R18R20G20R04G11R05
                                G19
 112524349.060 7  87681317.30946  21412673.861    21412672.666    21412678.844
        47.000          37.0004
 120312619.072 7  93750100.68845  22894731.949    22894731.399    22894735.905
        47.000          31.0004
 114743671.925 7  89410657.27345  21834995.857    21834995.350    21834997.867
        47.000          33.0004
 124836419.966 7  97275135.33444  23755583.429    23755582.603    23755588.391
        43.000          24.0004
 102238769.302 8  79519040.188 7  19112453.802    19112452.754    19112452.302
        49.000          46.000
 122510949.200 7  95463080.50345  23313057.650    23313057.069    23313059.768
        45.000          30.0004
 119463899.379 7  92916362.918 6  22379604.221    22379605.326    22379609.609
        42.000          39.000
 112120100.146 6  87204525.066 6  20967018.779    20967018.658    20967020.264
        39.000          40.000
 119710958.343 7  93281273.35444  22780239.420    22780238.619    22780243.238
        44.000          28.0004
 105247640.406 8  81859274.206 7  19654251.083    19654251.098    19654249.107
        49.000          46.000
 106721042.281 8  83159259.06846  20308340.823    20308340.272    20308341.884
        50.000          41.0004
 108294945.119 7  84229397.855 7  20258802.737    20258801.967    20258804.332
        47.000          44.000
 111414615.627 8  86816592.55946  21201499.464    21201497.872    21201499.623
        49.000          39.0004
 13  2  4  8 33 30.0000000  0 13G01G03G14G06R19G22R18R20G20R04G11R05
                                G19
 112435240.042 8  87611881.70546  21395716.657    21395716.307    21395721.749
        48.000          37.0004
 120397000.585 7  93815852.43645  22910789.013    22910788.764    22910793.665
        46.000          31.0004
 114765605.369 7  89427748.24145  21839169.338    21839168.923    21839171.994
        47.000          33.0004
 124918646.827 7  97339208.06444  23771230.304    23771230.131    23771234.604
        43.000          24.0004
 102236679.298 8  79517414.606 7  19112063.483    19112062.224    19112061.729
        49.000          46.000
 122569464.884 7  95508677.06245  23324193.629    23324192.544    23324194.985
        46.000          31.0004
 119561799.726 7  92992507.493 6  22397944.515    22397945.079    22397949.830
        42.000          39.000
 111999679.726 6  87110864.748 6  20944499.204    20944498.805    20944500.563
        38.000          40.000
 119608079.135 7  93201107.77244  22760662.296    22760660.569    22760665.966
        44.000          28.0004
 105276618.112 8  81881812.394 7  19659662.687    19659662.404    19659660.289
        49.000          45.000
 106662168.901 8  83113383.68346  20297137.595    20297136.702    20297138.599
        49.000          40.0004
 108217008.103 8  84168780.208 7  20244223.848    20244223.505    20244224.391
        49.000          44.000
 111456391.171 8  86849144.88846  21209448.988    21209447.200    21209449.389
        50.000          40.0004
 13  2  4  8 34  0.0000000  0 12G01G03G06R19G22R18R20G20R04G11R05G19
 112346250.640 8  87542539.30746  21378782.849    21378782.249    21378787.831
        48.000          38.0004
 120481475.016 7  93881676.58345  22926864.188    22926863.871    22926868.886
        45.000          31.0004
 125000892.784 6  97403295.69843  23786880.759    23786879.937    23786885.989
        41.000          23.0004
 102235292.620 8  79516336.060 7  19111804.278    19111803.480    19111802.333
        50.000          46.000
 122627967.835 7  95554263.69845  23335326.337    23335325.274    23335327.776
        45.000          30.0004
 119659912.455 7  93068817.260 6  22416325.184    22416326.664    22416329.980
        43.000          39.000
 111879629.820 6  87017492.629 6  20922048.744    20922048.827    20922051.109
        38.000          41.000
 119505338.464 7  93121050.12044  22741111.573    22741110.572    22741115.112
        44.000          29.0004
 105305917.655 8  81904600.907 7  19665133.442    19665134.009    19665132.055
        48.000          45.000
 106603656.517 8  83067789.60346  20286002.892    20286001.932    20286004.038
        49.000          40.0004
 108139484.061 8  84108483.764 7  20229721.045    20229720.749    20229721.915
        49.000          44.000
 111498551.341 8  86881996.93446  21217471.618    21217470.393    21217472.377
        50.000          40.0004
 13  2  4  8 34 30.0000000  0 12G01G03G06R19G22R18R20G20R04G11R05G19
 112257386.503 7  87473294.52846  21361872.388    21361871.947    21361877.678
        47.000          38.0004
 120566043.663 7  93947574.14245  22942957.296    22942956.319    22942961.618
        46.000          30.0004
 125083159.650 7  97467399.59343  23802536.112    23802534.415    23802541.289
        42.000          22.0004
 102234613.493 8  79515807.821 7  19111676.479    19111675.708    19111675.785
        49.000          46.000
 122686461.371 7  95599843.00344  23346457.006    23346455.873    23346458.465
        46.000          29.0004
 119758238.666 7  93145293.063 6  22434745.216    22434746.226    22434750.169
        43.000          39.000
 111759958.855 6  86924415.209 6  20899668.726    20899669.471    20899671.806
        38.000          41.000
 119402740.720 7  93041103.84344  22721587.609    22721586.977    22721591.626
        44.000          29.0004
 105335540.575 8  81927640.917 7  19670665.684    19670665.695    19670663.674
        49.000          45.000
 106545510.774 8  83022481.21146  20274937.993    20274937.086    20274939.461
        49.000          41.0004
 108062377.042 8  84048511.663 7  20215296.113    20215295.928    20215297.157
        49.000          44.000
 111541098.416 8  86915150.44746  21225568.382    21225567.284    21225569.027
        51.000          40.0004
 13  2  4  8 35  0.0000000  0 11G01G03G06R19G22R18R20G20R04G11R05
 112168773.413 7  87404245.37146  21345010.163    21345009.248    21345015.330
        47.000          38.0004
 120650828.543 7  94013640.18945  22959090.925    22959089.656    22959095.441
        44.000          30.0004
 125165569.412 6  97531614.83543  23818218.123    23818216.847    23818223.392
        41.000          22.0004
 102234768.442 8  79515928.310 7  19111705.940    19111705.418    19111704.784
        49.000          46.000
 122745068.662 7  95645510.94444  23357609.968    23357608.821    23357610.764
        46.000          29.0004
 119856901.504 7  93222030.687 6  22453227.964    22453229.330    22453233.203
        43.000          39.000
 111640797.154 6  86831733.927 7  20877387.497    20877386.028    20877387.787
        39.000          42.000
 119300410.754 7  92961366.20944  22702115.076    22702113.573    22702118.696
        43.000          28.0004
 105365610.862 8  81951028.893 7  19676281.127    19676281.003    19676279.116
        48.000          45.000
 106487857.682 8  82977556.71446  20263967.343    20263966.649    20263968.428
        50.000          41.0004
 107985813.697 8  83988962.422 7  20200973.629    20200973.704    20200974.751
        49.000          45.000
 13  2  4  8 35 30.0000000  0 11G01G03G06R19G22R18R20G20R04G11R05
 112080377.755 8  87335365.62046  21328189.083    21328188.005    21328193.968
        49.000          37.0004
 120735791.235 7  94079844.80144  22975258.843    22975257.407    22975263.186
        45.000          29.0004
 125248084.585 7  97595912.21243  23833920.882    23833919.518    23833926.219
        42.000          23.0004
 102235721.434 8  79516669.500 7  19111884.368    19111883.328    19111883.205
        50.000          46.000
 122803753.838 7  95691239.56444  23368777.529    23368776.950    23368778.386
        46.000          29.0004
 119955862.390 7  93299000.110 6  22471765.459    22471767.074    22471772.171
        43.000          39.000
 111522113.101 6  86739424.134 7  20855192.476    20855191.936    20855193.683
        39.000          42.000
 119198314.036 7  92881810.33144  22682686.242    22682685.266    22682689.704
        44.000          28.0004
 105396089.908 8  81974734.790 7  19681972.565    19681972.869    19681971.358
        49.000          46.000
 106430663.434 8  82932989.75047  20253083.646    20253083.331    20253084.938
        52.000          42.0004
 107909758.284 8  83929808.236 7  20186745.983    20186745.691    20186747.225
        49.000          45.000
 13  2  4  8 36  0.0000000  0 11G01G03G06R19G22R18R20G20R04G11R05
 111992115.458 8  87266589.79646  21311393.774    21311392.414    21311398.057
        48.000          37.0004
 120820843.687 7  94146119.33444  22991443.552    22991442.903    22991448.469
        43.000          29.0004
 125330617.233 7  97660223.20643  23849625.951    23849624.866    23849631.875
        42.000          23.0004
 102237385.656 8  79517963.853 7  19112195.570    19112194.653    19112193.668
        50.000          46.000
 122862430.429 7  95736961.52245  23379943.617    23379942.632    23379944.247
        44.000          30.0004
 120055031.195 7  93376131.259 6  22490343.592    22490344.104    22490350.274
        42.000          39.000
 111403823.542 6  86647421.155 6  20833070.881    20833070.911    20833072.361
        39.000          41.000
 119096365.284 7  92802369.75244  22663286.411    22663285.883    22663289.407
        44.000          28.0004
 105426887.632 8  81998688.546 7  19687723.760    19687723.859    19687722.393
        49.000          45.000
 106373843.805 8  82888714.70146  20242271.629    20242271.420    20242272.701
        52.000          41.0004
 107834123.366 8  83870981.074 7  20172596.220    20172596.366    20172597.913
        49.000          44.000
 13  2  4  8 36 30.0000000  0 11G01G03G06R19G22R18R20G20R04G11R05
 111903936.713 8  87197879.08846  21294613.758    21294613.108    21294618.425
        48.000          38.0004
 120905931.857 7  94212421.71645  23007635.666    23007636.162    23007640.792
        46.000          30.0004
 125413113.565 7  97724505.91543  23865324.260    23865323.567    23865330.156
        42.000          23.0004
 102239708.342 8  79519770.365 7  19112629.953    19112629.305    19112628.047
        51.000          46.000
 122921045.899 7  95782635.85644  23391098.285    23391096.694    23391098.891
        46.000          29.0004
 120154352.659 7  93453381.171 6  22508950.299    22508950.902    22508956.568
        42.000          39.000
 111285880.350 6  86555687.562 6  20811015.217    20811014.453    20811016.698
        39.000          41.000
 118994513.992 7  92723005.11844  22643905.290    22643903.898    22643907.473
        45.000          28.0004
 105457949.410 8  82022847.689 7  19693524.219    19693524.502    19693522.784
        48.000          45.000
 106317349.104 8  82844692.84546  20231521.050    20231520.776    20231522.063
        51.000          41.0004
 107758856.865 8  83812440.493 7  20158516.496    20158515.833    20158517.608
        48.000          44.000
 13  2  4  8 37  0.0000000  0 11G01G03G06R19G22R18R20G20R04G11R05
 111815799.625 8  87129200.83446  21277841.460    21277840.612    21277846.299
        49.000          37.0004
 120991009.802 7  94278716.12545  23023825.777    23023826.359    23023830.794
        46.000          30.0004
 125495528.002 6  97788724.77743  23881007.873    23881006.384    23881013.580
        41.000          22.0004
 102242645.598 8  79522054.872 7  19113178.413    19113177.652    19113177.366
        49.000          46.000
 122979556.267 7  95828228.29044  23402232.111    23402230.576    23402233.039
        46.000          29.0004
 120253779.798 7  93530713.252 6  22527576.884    22527577.899    22527581.891
        43.000          38.000
 111168243.285 6  86464192.108 7  20789016.312    20789016.100    20789017.948
        39.000          42.000
 118892716.901 7  92643682.70944  22624533.753    22624532.900    22624536.009
        46.000          29.0004
 105489227.701 8  82047175.244 7  19699365.853    19699365.722    19699364.057
        49.000          45.000
 106261137.410 8  82800891.50746  20220824.154    20220823.492    20220825.268
        52.000          41.0004
 107683914.673 8  83754152.151 7  20144497.350    20144497.108    20144498.278
        49.000          44.000
 13  2  4  8 37 30.0000000  0 10G01G03R19G22R18R20G20R04G11R05
 111727675.318 8  87060532.54046  21261071.924    21261071.163    21261076.754
        48.000          37.0004
 121076044.223 7  94344976.62345  23040007.682    23040008.123    23040012.249
        47.000          30.0004
 102246165.887 8  79524792.852 7  19113837.016    19113835.798    19113835.815
        49.000          46.000
 123037929.992 7  95873714.23844  23413340.288    23413338.510    23413341.685
        44.000          28.0004
 120353278.527 7  93608101.008 6  22546216.684    22546216.721    22546221.791
        42.000          38.000
 111050885.277 6  86372913.661 6  20767068.023    20767069.584    20767071.389
        40.000          41.000
 118790944.133 7  92564379.26644  22605167.209    22605166.345    22605169.467
        46.000          29.0004
 105520689.277 8  82071645.340 7  19705241.023    19705241.066    19705239.561
        49.000          46.000
 106205179.927 8  82757288.26646  20210175.851    20210175.192    20210177.020
        50.000          40.0004
 107609265.882 8  83696091.998 7  20130532.503    20130532.372    20130533.779
        49.000          45.000
 13  2  4  8 38  0.0000000  0 13G01G03G14G06R19G22R18R20G20R04G11R05
                                G19
 113214965.414 8  88219459.89446  21544093.490    21544093.013    21544098.531
        48.000          37.0004
 122736426.590 8  95638780.97145  23355967.909    23355967.802    23355972.062
        48.000          30.0004
 116559088.317 7  90825266.27545  22180457.551    22180456.954    22180459.735
        46.000          32.0004
 127235401.255 7  99144483.97843  24212096.061    24212091.997    24212100.403
        42.000          20.0004
 103853933.180 8  80775278.517 7  19414392.460    19414391.432    19414390.514
        50.000          46.000
 124671561.403 7  97146673.72744  23724209.907    23724208.685    23724211.278
        46.000          28.0004
 122053131.683 6  94930208.899 6  22864656.348    22864657.164    22864661.464
        41.000          38.000
 112536916.047 6  87528715.413 6  21044964.508    21044964.497    21044966.541
        39.000          41.000
 120264596.581 7  93712679.90544  22885593.761    22885592.731    22885596.667
        45.000          29.0004
 107157681.917 8  83344861.837 7  20010937.882    20010938.025    20010936.064
        49.000          45.000
 107724877.019 8  83941467.81546  20499364.468    20499363.507    20499365.434
        50.000          40.0004
 109137451.929 8  84884681.191 7  20416411.056    20416411.077    20416412.432
        49.000          45.000
 113425603.958 8  88383592.77946  21584176.339    21584174.180    21584176.864
        49.000          39.0004
 13  2  4  8 38 30.0000000  0 10G01G14G06R19R18R20R04G11R05G19
 113126817.252 7  88150773.00346  21527319.682    21527319.321    21527324.890
        47.000          38.0004
 116585117.107 7  90845548.41345  22185410.597    22185410.260    22185412.955
        47.000          33.0004
 127317410.575 6  99208387.18943  24227700.799    24227701.592    24227706.401
        41.000          21.0004
 103858563.857 8  80778880.127 7  19415257.840    19415256.819    19415255.962
        49.000          46.000
 122152709.408 7  95007658.092 6  22883310.577    22883311.821    22883315.809
        42.000          38.000
 112420073.228 6  87437837.651 6  21023114.532    21023114.265    21023116.210
        39.000          41.000
 107189446.425 8  83369567.556 7  20016869.890    20016870.205    20016868.088
        49.000          45.000
 107669378.019 8  83898221.83446  20488803.273    20488802.749    20488804.335
        51.000          40.0004
 109063334.078 8  84827033.998 7  20402546.088    20402546.006    20402547.254
        49.000          44.000
 113470839.020 8  88418840.82846  21592784.391    21592783.237    21592784.900
        49.000          39.0004
 13  2  4  8 39  0.0000000  0 10G01G14G06R19R18R20R04G11R05G19
 113038652.072 8  88082072.85746  21510542.092    21510541.807    21510547.704
        49.000          38.0004
 116611424.175 7  90866047.38945  22190416.513    22190416.208    22190418.343
        47.000          32.0004
 127399263.943 7  99272168.82943  24243277.661    24243277.765    24243283.381
        43.000          21.0004
 103863741.733 8  80782907.334 7  19416225.597    19416224.668    19416224.009
        50.000          46.000
 122252314.499 7  95085128.572 6  22901970.745    22901971.137    22901975.466
        42.000          38.000
 112303486.553 6  87347159.145 7  21001313.008    21001312.812    21001314.389
        40.000          43.000
 107221350.617 8  83394381.913 7  20022827.297    20022827.930    20022825.892
        49.000          45.000
 107614102.822 8  83855150.23246  20478284.938    20478284.283    20478285.742
        51.000          41.0004
 108989474.308 8  84769587.524 7  20388729.272    20388729.062    20388730.564
        49.000          45.000
 113516288.224 8  88454255.74146  21601433.310    21601432.105    21601433.709
        49.000          39.0004
 13  2  4  8 39 30.0000000  0 10G01G14G06R19R18R20R04G11R05G19
 112950459.361 7  88013351.26046  21493759.719    21493759.141    21493765.451
        47.000          39.0004
 116637995.930 7  90886752.63045  22195472.904    22195472.363    22195474.834
        46.000          31.0004
 127480946.831 6  99335817.67443  24258821.259    24258821.776    24258827.223
        41.000          21.0004
 103869454.324 8  80787350.443 7  19417294.502    19417293.767    19417292.131
        51.000          46.000
 122351931.717 7  95162608.474 6  22920630.500    22920633.035    22920637.332
        42.000          37.000
 112187147.695 6  87256673.377 7  20979557.340    20979556.706    20979558.627
        39.000          43.000
 107253379.978 8  83419293.622 7  20028809.305    20028809.108    20028807.334
        49.000          45.000
 107559041.089 8  83812244.97946  20467807.059    20467806.245    20467808.091
        49.000          40.0004
 108915860.039 8  84712332.004 7  20374957.925    20374958.126    20374959.434
        50.000          45.000
 113561937.588 8  88489826.63246  21610120.221    21610118.741    21610120.738
        49.000          39.0004
 13  2  4  8 40  0.0000000  0 10G01G14G06R19R18R20R04G11R05G19
 112862232.314 8  87944602.90546  21476970.619    21476970.224    21476976.132
        49.000          39.0004
 116664821.766 8  90907655.85045  22200577.853    22200577.462    22200579.645
        48.000          32.0004
 127562448.569 7  99399325.35343  24274331.090    24274331.210    24274337.578
        42.000          22.0004
 103875692.615 8  80792202.422 7  19418460.123    19418459.142    19418458.564
        50.000          46.000
 122451549.328 6  95240088.687 6  22939291.943    22939293.832    22939298.053
        41.000          37.000
 112071052.128 6  87166376.851 7  20957846.424    20957846.432    20957848.164
        40.000          42.000
 107285522.856 8  83444293.621 7  20034811.060    20034811.613    20034810.063
        49.000          46.000
 107504185.712 8  83769500.52646  20457368.280    20457367.836    20457369.400
        52.000          41.0004
 108842482.483 8  84655260.584 7  20361231.641    20361231.314    20361232.718
        50.000          45.000
 113607776.292 8  88525545.06146  21618842.993    21618841.693    21618843.745
        49.000          40.0004
 13  2  4  8 40 30.0000000  0 10G01G14G06R19R18R20R04G11R05G19
 112773973.765 8  87875830.00246  21460176.023    21460175.465    21460181.115
        49.000          39.0004
 116691901.275 7  90928756.73445  22205731.533    22205730.323    22205733.381
        47.000          32.0004
 127643768.033 6  99462690.99843  24289806.185    24289805.195    24289812.704
        41.000          22.0004
 103882457.458 8  80797463.952 7  19419724.786    19419723.956    19419723.329
        49.000          46.000
 122551165.440 6  95317567.733 6  22957955.482    22957954.289    22957958.835
        40.000          37.000
 111955205.214 6  87076273.710 7  20936182.287    20936182.597    20936184.418
        40.000          43.000
 107317777.871 8  83469380.833 7  20040834.573    20040835.101    20040833.274
        49.000          45.000
 107449539.701 8  83726919.21046  20446969.567    20446969.337    20446970.670
        50.000          41.0004
 108769342.809 8  84598374.202 7  20347548.503    20347548.113    20347550.783
        48.000          45.000
 113653804.359 8  88561411.04446  21627601.663    21627600.524    21627602.851
        50.000          39.0004
 13  2  4  8 41  0.0000000  0 10G01G14G06R19R18R20R04G11R05G19
 112685690.406 8  87807037.77346  21443376.401    21443375.834    21443381.445
        48.000          39.0004
 116719237.721 7  90950057.82345  22210933.471    22210932.490    22210935.430
        46.000          32.0004
 127724908.097 7  99525916.83743  24305246.458    24305246.104    24305253.789
        42.000          22.0004
 103889753.427 8  80803138.571 7  19421088.935    19421087.966    19421086.714
        50.000          46.000
 122650782.405 6  95395047.434 6  22976616.950    22976616.240    22976621.918
        39.000          37.000
 111839615.905 6  86986370.927 7  20914565.568    20914566.277    20914568.532
        39.000          42.000
 107350147.558 8  83494557.249 7  20046879.623    20046879.820    20046878.020
        49.000          45.000
 107395109.310 8  83684505.90847  20436611.964    20436611.490    20436612.900
        52.000          42.0004
 108696446.026 8  84541676.717 7  20333911.896    20333911.948    20333913.528
        49.000          45.000
 113700024.545 8  88597426.72846  21636397.024    21636395.873    21636398.344
        49.000          39.0004
 13  2  4  8 41 30.0000000  0 10G01G14G06R19R18R20R04G11R05G19
 112597387.297 8  87738230.16146  21426573.121    21426571.962    21426577.832
        49.000          39.0004
 116746832.557 7  90971560.25945  22216184.857    22216184.013    22216186.599
        47.000          32.0004
 127805869.859 6  99589003.76143  24320653.529    24320651.470    24320660.506
        40.000          22.0004
 103897583.805 8  80809228.848 7  19422552.473    19422551.576    19422550.682
        50.000          46.000
 122750400.397 6  95472527.932 6  22995278.194    22995278.648    22995284.733
        40.000          38.000
 111724291.893 6  86896674.467 7  20893000.120    20893000.041    20893001.913
        40.000          42.000
 107382632.915 8  83519823.635 7  20052946.072    20052946.046    20052944.323
        49.000          45.000
 107340899.487 8  83642264.47446  20426296.100    20426295.593    20426297.137
        51.000          41.0004
 108623795.553 8  84485170.826 7  20320321.370    20320321.085    20320322.428
        49.000          45.000
 113746438.619 8  88633593.49646  21645229.643    21645228.320    21645230.553
        50.000          38.0004
 13  2  4  8 42  0.0000000  0 10G01G14G06R19R18R20R04G11R05G19
 112509072.845 7  87669413.71946  21409767.084    21409766.309    21409772.490
        47.000          38.0004
 116774690.897 7  90993268.02745  22221485.663    22221484.756    22221487.696
        46.000          31.0004
 127886657.739 6  99651955.18543  24336026.486    24336025.931    24336034.015
        41.000          22.0004
 103905955.042 8  80815739.780 7  19424117.181    19424116.825    19424115.888
        50.000          46.000
 122850023.419 6  95550012.335 6  23013941.698    23013941.782    23013948.262
        40.000          38.000
 111609243.876 6  86807192.725 7  20871486.019    20871485.497    20871487.284
        39.000          42.000
 107415238.141 8  83545183.239 7  20059034.975    20059035.343    20059033.467
        49.000          45.000
 107286918.610 8  83600201.44846  20416023.760    20416023.320    20416024.891
        51.000          41.0004
 108551397.826 8  84428861.517 7  20306777.910    20306777.359    20306778.906
        49.000          44.000
 113793051.384 8  88669915.09146  21654099.750    21654098.567    21654100.584
        49.000          39.0004
 13  2  4  8 42 30.0000000  0 11G01G14G06R19R18R20G20R04G11R05G19
 112420745.362 7  87600587.10246  21392958.948    21392958.128    21392963.825
        47.000          38.0004
 116802807.428 7  91015176.99345  22226836.223    22226835.595    22226837.839
        45.000          32.0004
 127967266.200 6  99714766.77043  24351366.394    24351365.559    24351373.760
        41.000          22.0004
 103914862.925 8  80822668.119 7  19425782.178    19425781.831    19425781.222
        50.000          46.000
 122949644.799 6  95627495.487 6  23032603.974    23032604.851    23032611.356
        40.000          38.000
 111494472.603 6  86717926.169 7  20850023.155    20850023.018    20850024.539
        40.000          42.000
 119347930.492 7                  22711156.947
        45.000
 107447956.894 8  83570631.138 7  20065144.954    20065144.949    20065143.502
        50.000          45.000
 107233164.544 8  83558315.16046  20405794.961    20405794.150    20405796.047
        49.000          41.0004
 108479249.621 8  84372746.298 7  20293281.240    20293280.630    20293282.611
        49.000          45.000
 113839857.303 8  88706387.18046  21663006.639    21663005.591    21663007.529
        49.000          39.0004
 13  2  4  8 43  0.0000000  0 14G01G03G14G32G06R19G22R18R20G20R04G11
                                R05G19
 112332409.585 8  87531754.02346  21376148.952    21376148.384    21376154.348
        48.000          39.0004
 123580584.285 7  96296562.26444  23516603.705    23516603.957    23516608.469
        45.000          28.0004
 116831183.258 7  91037288.01045  22232236.067    22232235.479    22232237.553
        47.000          32.0004
 110435886.005 8  86053940.58446  21015251.032    21015250.265    21015253.808
        50.000          38.0004
 128047696.177 6  99777439.29743  24366671.785    24366671.644    24366677.735
        41.000          21.0004
 103924310.010 8  80830015.832 7  19427548.510    19427547.909    19427547.315
        50.000          46.000
 125243599.246 7  97592419.55144  23833064.576    23833063.400    23833064.213
        44.000          24.0004
 123049264.827 6  95704977.574 6  23051266.966    23051267.235    23051273.407
        41.000          38.000
 111379985.296 6  86628880.509 7  20828612.929    20828612.475    20828615.241
        39.000          43.000
 119246000.354 7  92918966.05344  22691759.492    22691758.849    22691762.667
        46.000          29.0004
 107480790.079 8  83596168.022 7  20071276.530    20071276.573    20071274.908
        49.000          45.000
 107179642.014 8  83516609.28946  20395609.695    20395609.481    20395610.716
        49.000          41.0004
 108407353.608 8  84316827.206 7  20279831.232    20279830.467    20279832.918
        49.000          45.000
 113886857.681 8  88743010.81046  21671950.585    21671949.516    21671951.365
        48.000          39.0004
 13  2  4  8 43 30.0000000  0 14G01G03G14G32G06R19G22R18R20G20R04G11
                                R05G19
 112244072.482 8  87462919.92646  21359339.045    21359338.410    21359344.605
        48.000          38.0004
 123664394.682 7  96361868.98044  23532552.537    23532552.444    23532557.164
        45.000          28.0004
 116859821.829 7  91059603.75245  22237685.215    22237684.990    22237687.578
        46.000          32.0004
 110377993.076 8  86008829.21846  21004233.995    21004233.519    21004237.094
        50.000          39.0004
 128127950.729 7  99839975.08843  24381944.094    24381943.015    24381948.992
        43.000          21.0004
 103934301.446 8  80837786.931 7  19429416.408    19429415.492    19429414.898
        49.000          46.000
 125299779.800 7  97636196.50844  23843754.925    23843754.164    23843756.452
        44.000          24.0004
 123148885.761 6  95782460.334 6  23069928.585    23069930.836    23069936.356
        41.000          38.000
 111265791.253 6  86540062.918 7  20807258.178    20807257.446    20807260.063
        39.000          43.000
 119144067.132 7  92839537.58444  22672362.534    22672361.797    22672365.965
        47.000          29.0004
 107513740.275 8  83621795.926 7  20077429.658    20077429.749    20077427.842
        49.000          44.000
 107126357.581 8  83475088.94146  20385470.191    20385469.873    20385471.164
        51.000          41.0004
 108335715.306 8  84261108.541 7  20266429.435    20266429.308    20266431.418
        49.000          45.000
 113934055.814 8  88779788.53246  21680932.151    21680930.997    21680932.941
        50.000          39.0004
 13  2  4  8 44  0.0000000  0 14G01G03G14G32G06R19G22R18R20G20R04G11
                                R05G19
 112155733.057 8  87394084.01246  21342529.002    21342528.260    21342533.756
        50.000          39.0004
 123748090.375 7  96427086.28944  23548479.739    23548478.899    23548483.898
        46.000          28.0004
 116888718.863 7  91082120.88145  22243184.225    22243183.686    22243186.831
        46.000          31.0004
 110320248.143 8  85963833.19046  20993245.859    20993245.229    20993248.755
        51.000          39.0004
 128208024.766 6  99902370.21943  24397181.903    24397181.146    24397186.878
        41.000          20.0004
 103944833.580 8  80845978.563 7  19431385.195    19431384.517    19431383.410
        49.000          46.000
 125355777.279 7  97679830.81744  23854410.946    23854410.159    23854413.214
        43.000          25.0004
 123248501.811 6  95859939.351 6  23088590.670    23088592.460    23088597.644
        41.000          38.000
 111151891.817 6  86451474.515 7  20785959.171    20785958.537    20785960.465
        40.000          43.000
 119042128.467 7  92760104.86945  22652965.166    22652964.276    22652967.553
        47.000          30.0004
 107546802.155 8  83647510.688 7  20083603.789    20083603.593    20083601.901
        49.000          45.000
 107073310.097 8  83433753.23246  20375375.596    20375375.164    20375376.677
        50.000          41.0004
 108264331.582 8  84205587.882 7  20253076.061    20253076.001    20253077.243
        49.000          45.000
 113981446.859 8  88816716.56246  21689950.400    21689949.159    21689951.225
        49.000          39.0004
 13  2  4  8 44 30.0000000  0 14G01G03G14G32G06R19G22R18R20G20R04G11
                                R05G19
 112067402.517 8  87325255.02046  21325719.830    21325719.325    21325725.145
        48.000          39.0004
 123831678.497 7  96492219.78644  23564386.442    23564385.265    23564391.149
        44.000          28.0004
 116917881.872 7  91104845.28445  22248734.122    22248733.254    22248736.578
        46.000          32.0004
 110262660.294 8  85918959.55446  20982287.038    20982286.275    20982290.038
        50.000          39.0004
 128287925.481 6  99964630.32343  24412385.985    24412385.889    24412391.285
        40.000          20.0004
 103955915.253 8  80854597.625 7  19433456.979    19433456.199    19433455.595
        49.000          46.000
 125411600.548 7  97723329.37444  23865033.828    23865033.254    23865036.281
        43.000          25.0004
 123348119.461 7  95937419.567 6  23107252.791    23107254.339    23107258.891
        42.000          38.000
 111038300.719 6  86363125.920 7  20764717.171    20764716.735    20764718.150
        41.000          43.000
 118940194.322 7  92680675.68645  22633567.378    22633566.880    22633570.392
        47.000          31.0004
 107579982.848 8  83673317.867 7  20089799.633    20089800.267    20089798.500
        49.000          45.000
 107020510.406 8  83392610.60946  20365328.094    20365327.468    20365329.159
        48.000          41.0004
 108193211.610 8  84150272.358 7  20239771.861    20239771.708    20239773.003
        49.000          45.000
 114029038.609 8  88853801.00446  21699007.211    21699005.662    21699007.761
        50.000          38.0004
 13  2  4  8 45  0.0000000  0 14G01G03G14G32G06R19G22R18R20G20R04G11
                                R05G19
 111979086.002 8  87256436.96046  21308914.081    21308913.560    21308919.034
        49.000          39.0004
 123915159.651 7  96557269.92644  23580272.095    23580271.768    23580277.121
        45.000          28.0004
 116947312.237 7  91127778.01045  22254334.391    22254333.813    22254337.189
        47.000          32.0004
 110205232.603 8  85874210.71646  20971358.908    20971358.342    20971361.833
        49.000          39.0004
 128367654.515 6 100026756.61143  24427557.821    24427557.595    24427564.157
        40.000          20.0004
 103967549.794 8  80863646.682 7  19435631.969    19435631.253    19435630.523
        50.000          46.000
 125467252.118 7  97766694.15244  23875624.284    23875622.952    23875625.982
        42.000          24.0004
 123447739.393 6  96014901.569 6  23125914.292    23125915.933    23125921.744
        41.000          37.000
 110925025.302 6  86275022.803 7  20743533.564    20743533.872    20743535.100
        41.000          42.000
 118838268.770 7  92601253.17545  22614171.569    22614170.826    22614174.906
        47.000          31.0004
 107613283.330 8  83699218.212 7  20096018.657    20096018.899    20096017.072
        49.000          45.000
 106967963.508 8  83351664.96846  20355328.818    20355328.156    20355329.939
        49.000          41.0004
 108122358.879 8  84095164.701 7  20226517.381    20226516.626    20226518.292
        49.000          45.000
 114076832.104 8  88891042.64046  21708101.759    21708100.331    21708102.599
        48.000          39.0004
 13  2  4  8 45 30.0000000  0 14G01G03G14G32G06R19G22R18R20G20R04G11
                                R05G19
 111890791.564 8  87187636.09946  21292112.220    21292111.944    21292117.036
        49.000          39.0004
 123998537.623 7  96622239.66644  23596138.510    23596138.239    23596143.767
        45.000          28.0004
 116977014.646 7  91150922.70445  22259986.789    22259985.946    22259989.612
        46.000          32.0004
 110147971.033 8  85829591.32046  20960462.558    20960461.976    20960465.307
        50.000          39.0004
 128447215.910 6 100088752.30043  24442698.399    24442698.127    24442705.390
        41.000          20.0004
 103979742.518 8  80873129.892 7  19437911.347    19437910.681    19437909.968
        50.000          46.000
 125522738.114 7  97809929.91544  23886182.543    23886181.442    23886184.640
        42.000          24.0004
 123547364.719 6  96092387.738 6  23144578.893    23144578.607    23144583.948
        41.000          36.000
 110812076.279 6  86187173.572 7  20722411.931    20722411.845    20722412.841
        41.000          42.000
 118736358.522 7  92521842.59345  22594778.173    22594778.140    22594781.434
        45.000          31.0004
 107646707.218 8  83725214.538 7  20102259.961    20102260.316    20102258.644
        49.000          44.000
 106915677.023 8  83310922.25146  20345378.935    20345378.704    20345380.033
        51.000          41.0004
 108051779.599 8  84040269.726 7  20213313.863    20213313.930    20213315.179
        50.000          45.000
 114124832.326 8  88928445.36346  21717236.083    21717234.633    21717236.569
        49.000          38.0004
 13  2  4  8 46  0.0000000  0 14G01G03G14G32G06R19G22R18R20G20R04G11
                                R05G19
 111802528.790 8  87118859.91946  21275316.224    21275316.020    21275320.857
        50.000          39.0004
 124081817.894 7  96687133.27844  23611986.338    23611985.749    23611991.178
        44.000          27.0004
 117006994.826 7  91174283.85545  22265692.601    22265691.736    22265694.217
        47.000          32.0004
 110090883.126 8  85785107.23946  20949599.395    20949598.398    20949601.749
        49.000          38.0004
 128526615.019 7 100150621.52043  24457808.015    24457808.507    24457815.161
        42.000          21.0004
 103992500.668 8  80883052.892 7  19440296.638    19440295.991    19440294.856
        50.000          46.000
 125578065.262 7  97853041.87743  23896711.089    23896710.116    23896712.079
        42.000          23.0004
 123647000.721 6  96169882.232 6  23163243.199    23163244.255    23163248.364
        41.000          36.000
 110699465.546 6  86099587.465 7  20701352.966    20701353.283    20701354.409
        41.000          43.000
 118634471.976 7  92442450.49545  22575390.329    22575389.499    22575393.362
        47.000          31.0004
 107680260.435 8  83751311.450 7  20108526.306    20108525.926    20108524.353
        48.000          44.000
 106863660.364 8  83270389.78446  20335480.473    20335480.404    20335481.712
        51.000          41.0004
 107981481.449 8  83985593.417 7  20200162.885    20200162.920    20200164.579
        49.000          46.000
 114173044.687 8  88966013.39146  21726410.487    21726409.345    21726411.111
        50.000          38.0004
 13  2  4  8 46 30.0000000  0 14G01G03G14G32G06R19G22R18R20G20R04G11
                                R05G19
 111714300.831 8  87050110.86946  21258526.908    21258526.837    21258531.904
        49.000          39.0004
 124164999.429 7  96751949.96644  23627815.246    23627814.093    23627820.425
        44.000          27.0004
 117037252.253 7  91197861.05345  22271450.349    22271449.817    22271451.878
        46.000          32.0004
 110033969.887 8  85740759.26846  20938769.260    20938768.101    20938771.345
        50.000          38.0004
 128605851.309 7 100212363.85943  24472886.778    24472887.599    24472893.494
        42.000          22.0004
 104005825.039 8  80893416.257 7  19442786.880    19442786.510    19442785.740
        50.000          46.000
 125633234.604 7  97896030.87343  23907209.673    23907209.124    23907211.300
        42.000          23.0004
 123746645.441 6  96247383.487 5  23181909.869    23181911.502    23181914.686
        40.000          35.000
 110587198.415 6  86012268.581 7  20680359.486    20680358.276    20680359.485
        41.000          42.000
 118532611.005 7  92363078.31845  22556006.598    22556005.982    22556009.220
        47.000          31.0004
 107713941.643 8  83777507.904 7  20114816.018    20114815.743    20114814.361
        48.000          45.000
 106811916.327 8  83230069.74946  20325634.013    20325634.027    20325635.034
        51.000          41.0004
 107911465.826 8  83931136.829 7  20187065.003    20187064.774    20187066.789
        49.000          45.000
 114221468.623 8  89003746.28046  21735625.380    21735624.294    21735625.897
        49.000          38.0004
 13  2  4  8 47  0.0000000  0 14G01G03G14G32G06R19G22R18R20G20R04G11
                                R05G19
 111626108.239 8  86981389.38146  21241744.302    21241744.152    21241749.600
        50.000          39.0004
 124248078.001 7  96816686.39944  23643624.514    23643623.067    23643629.324
        44.000          27.0004
 117067784.129 7  91221652.10445  22277259.932    22277259.340    22277262.057
        47.000          32.0004
 109977229.788 8  85696546.20446  20927971.578    20927970.966    20927974.051
        50.000          39.0004
 128684921.221 6 100273976.51543  24487933.812    24487934.062    24487939.472
        41.000          21.0004
 104019713.449 8  80904218.342 7  19445382.889    19445382.510    19445381.921
        49.000          46.000
 125688244.399 7  97938895.58843  23917678.089    23917676.557    23917679.141
        42.000          23.0004
 123846294.907 6  96324888.451 5  23200576.873    23200577.826    23200583.019
        39.000          35.000
 110475277.841 6  85925219.241 7  20659428.713    20659428.314    20659429.949
        41.000          42.000
 118430775.032 7  92283725.62145  22536627.863    22536626.841    22536630.504
        46.000          30.0004
 107747746.963 8  83803800.902 7  20121128.814    20121128.797    20121127.284
        49.000          45.000
 106760445.142 8  83189962.31946  20315839.689    20315839.138    20315840.488
        51.000          41.0004
 107841731.146 8  83876898.757 7  20174019.518    20174019.768    20174021.005
        49.000          45.000
 114270101.145 8  89041641.69846  21744880.207    21744878.472    21744880.272
        49.000          38.0004
 13  2  4  8 47 30.0000000  0 14G01G03G14G32G06R19G22R18R20G20R04G11
                                R05G19
 111537956.121 8  86912699.41446  21224969.672    21224969.191    21224974.667
        49.000          39.0004
 124331054.599 7  96881343.37744  23659414.638    23659413.850    23659419.419
        44.000          27.0004
 117098591.593 7  91245657.88145  22283122.427    22283121.678    22283124.553
        46.000          32.0004
 109920665.710 8  85652470.29946  20917207.938    20917207.173    20917210.052
        49.000          38.0004
 128763825.919 6 100335460.47143  24502948.723    24502949.436    24502954.452
        41.000          21.0004
 104034168.657 8  80915461.255 7  19448085.598    19448084.778    19448084.274
        50.000          46.000
 125743097.166 7  97981637.90543  23928115.384    23928115.695    23928117.256
        42.000          23.0004
 123945949.308 6  96402397.234 5  23219246.015    23219245.806    23219249.990
        37.000          35.000
 110363711.271 7  85838445.247 7  20638564.825    20638565.188    20638566.363
        42.000          43.000
 118328967.803 7  92204395.34445  22517254.011    22517253.901    22517257.394
        47.000          30.0004
 107781677.355 8  83830191.177 7  20127465.697    20127465.199    20127463.500
        48.000          45.000
 106709251.471 8  83150071.13746  20306097.402    20306097.099    20306098.714
        50.000          41.0004
 107772280.354 8  83822881.505 7  20161027.393    20161027.095    20161028.704
        49.000          45.000
 114318943.519 8  89079700.63746  21754174.472    21754173.180    21754174.952
        49.000          38.0004
 13  2  4  8 48  0.0000000  0 14G01G03G14G32G06R19G22R18R20G20R04G11
                                R05G19
 111449849.049 8  86844044.56346  21208203.402    21208202.662    21208208.608
        49.000          39.0004
 124413929.715 7  96945921.27044  23675185.416    23675184.332    23675190.189
        44.000          27.0004
 117129675.689 7  91269879.21345  22289037.322    22289037.135    22289039.745
        46.000          32.0004
 109864280.250 8  85608533.57846  20906478.201    20906477.312    20906480.344
        50.000          39.0004
 128842565.981 6 100396816.12343  24517932.382    24517932.064    24517938.832
        40.000          20.0004
 104049192.219 8  80927146.225 7  19450893.937    19450893.481    19450892.926
        50.000          46.000
 125797794.881 6  98024259.39843  23938524.829    23938522.973    23938526.360
        41.000          22.0004
 124045608.534 6  96479909.784 5  23237915.645    23237916.209    23237920.114
        39.000          35.000
 110252505.461 6  85751951.837 7  20617769.185    20617768.806    20617770.376
        41.000          43.000
 118227192.535 7  92125089.95045  22497887.518    22497886.460    22497890.011
        45.000          30.0004
 107815733.123 8  83856678.983 7  20133824.388    20133825.059    20133823.242
        48.000          44.000
 106658339.568 8  83110399.51246  20296409.341    20296408.954    20296410.488
        50.000          40.0004
 107703115.904 8  83769086.953 7  20148088.955    20148088.409    20148089.990
        49.000          44.000
 114367996.685 8  89117923.84046  21763509.131    21763508.066    21763509.865
        49.000          39.0004
 13  2  4  8 48 30.0000000  0 14G01G03G14G32G06R19G22R18R20G20R04G11
                                R05G19
 111361794.761 7  86775430.83446  21191447.168    21191446.459    21191452.347
        47.000          39.0004
 124496706.494 7  97010422.53244  23690937.447    23690936.892    23690942.625
        45.000          27.0004
 117161040.516 7  91294319.30545  22295006.527    22295005.801    22295008.535
        46.000          32.0004
 109808078.803 8  85564740.24646  20895783.063    20895782.433    20895785.940
        49.000          38.0004
 128921145.792 6 100458046.86943  24532885.776    24532884.933    24532891.620
        41.000          19.0004
 104064789.742 8  80939277.618 7  19453809.765    19453809.027    19453808.910
        50.000          46.000
 125852343.302 6  98066764.57843  23948904.282    23948903.294    23948906.818
        41.000          21.0004
 124145275.462 6  96557428.281 5  23256587.724    23256588.252    23256592.092
        40.000          34.000
 110141670.309 6  85665746.757 7  20597041.888    20597041.711    20597043.893
        41.000          43.000
 118125455.935 7  92045814.70845  22478527.525    22478526.662    22478530.176
        46.000          30.0004
 107849917.960 8  83883267.170 7  20140208.726    20140208.685    20140206.926
        48.000          45.000
 106607716.660 8  83070953.08846  20286776.086    20286775.904    20286777.596
        51.000          41.0004
 107634243.575 8  83715519.598 7  20135205.469    20135205.192    20135206.352
        50.000          45.000
 114417264.232 8  89156314.09246  21772884.450    21772882.966    21772885.166
        48.000          39.0004
 13  2  4  8 49  0.0000000  0 14G01G03G14G32G06R19G22R18R20G20R04G11
                                R05G19
 111273794.397 8  86706859.13046  21174701.461    21174700.746    21174706.403
        49.000          39.0004
 124579381.398 7  97074844.39644  23706670.313    23706669.221    23706673.822
        44.000          26.0004
 117192683.073 7  91318975.80745  22301027.910    22301027.172    22301030.005
        46.000          32.0004
 109752060.449 8  85521089.56846  20885123.250    20885122.391    20885126.215
        50.000          38.0004
 128999561.813 6 100519150.01343  24547808.045    24547808.079    24547814.841
        41.000          19.0004
 104080959.399 8  80951854.000 7  19456832.809    19456832.301    19456831.439
        50.000          46.000
 125906741.133 7  98109152.40943  23959255.907    23959255.416    23959258.168
        42.000          22.0004
 124244946.681 6  96634950.136 5  23275259.704    23275259.809    23275264.548
        40.000          35.000
 110031209.376 6  85579832.698 7  20576386.035    20576384.797    20576387.199
        41.000          43.000
 118023758.009 7  91966569.61045  22459174.887    22459174.161    22459177.670
        46.000          30.0004
 107884228.601 8  83909953.189 7  20146615.702    20146616.139    20146614.438
        48.000          45.000
 106557383.704 8  83031732.59346  20277197.969    20277197.903    20277199.277
        50.000          41.0004
 107565662.601 8  83662178.863 7  20122375.724    20122374.921    20122376.776
        49.000          45.000
 114466743.613 8  89194869.41046  21782300.123    21782298.338    21782300.797
        49.000          39.0004
 13  2  4  8 49 30.0000000  0 14G01G03G14G32G06R19G22R18R20G20R04G11
                                R05G19
 111185852.919 8  86638333.30846  21157966.790    21157966.520    21157971.867
        50.000          40.0004
 124661955.429 7  97139187.70044  23722383.291    23722382.546    23722387.691
        43.000          26.0004
 117224604.955 8  91343849.95445  22307102.168    22307101.901    22307104.644
        48.000          32.0004
 109696228.022 8  85477583.76746  20874498.570    20874498.046    20874501.619
        48.000          38.0004
 129077815.227 6 100580126.43843  24562699.758    24562699.342    24562706.406
        40.000          20.0004
 104097703.606 8  80964877.232 7  19459962.688    19459962.121    19459961.433
        49.000          45.000
 125960990.788 7  98151424.77943  23969579.268    23969578.946    23969581.292
        42.000          22.0004
 124344622.175 6  96712475.301 5  23293931.547    23293931.869    23293936.688
        38.000          35.000
 109921129.734 6  85494215.211 7  20555800.307    20555799.396    20555801.694
        41.000          43.000
 117922102.207 7  91887357.33845  22439830.454    22439829.581    22439833.601
        46.000          30.0004
 107918665.935 8  83936737.750 7  20153046.858    20153046.678    20153045.468
        48.000          45.000
 106507345.030 8  82992741.40546  20267675.907    20267675.526    20267677.220
        49.000          41.0004
 107497375.855 8  83609066.958 7  20109601.143    20109600.719    20109602.426
        50.000          45.000
 114516436.034 8  89233590.73546  21791756.512    21791755.186    21791757.131
        49.000          39.0004
 13  2  4  8 50  0.0000000  0 14G01G03G14G32G06R19G22R18R20G20R04G11
                                R05G19
 111097977.494 8  86569858.95346  21141244.659    21141244.318    21141249.637
        51.000          40.0004
 124744431.930 7  97203454.96444  23738078.107    23738076.307    23738082.490
        42.000          25.0004
 117256809.115 7  91368944.09045  22313229.871    22313229.947    22313232.727
        46.000          32.0004
 109640586.383 8  85434226.63946  20863910.260    20863909.416    20863913.310
        50.000          38.0004
 129155909.483 7 100640978.80843  24577560.725    24577560.501    24577567.240
        42.000          20.0004
 104115026.302 8  80978350.419 7  19463201.437    19463200.949    19463199.821
        50.000          46.000
 126015096.999 7  98193585.36943  23979877.101    23979876.504    23979877.408
        43.000          22.0004
 124444304.364 6  96790005.676 5  23312606.488    23312606.692    23312611.583
        38.000          35.000
 109811440.901 6  85408901.686 7  20535288.062    20535287.400    20535289.052
        41.000          43.000
 117820494.461 7  91808182.49245  22420495.022    22420494.615    22420497.964
        46.000          30.0004
 107953232.768 8  83963623.024 7  20159501.802    20159502.040    20159500.741
        48.000          45.000
 106457607.701 8  82953985.03046  20258211.251    20258210.749    20258212.520
        50.000          41.0004
 107429388.297 8  83556187.753 7  20096882.312    20096881.785    20096883.985
        49.000          45.000
 114566344.807 8  89272480.64246  21801253.579    21801252.725    21801254.512
        49.000          39.0004
 13  2  4  8 50 30.0000000  0 14G01G03G14G32G06R19G22R18R20G20R04G11
                                R05G19
 111010172.709 8  86501439.64446  21124535.831    21124535.654    21124541.027
        50.000          40.0004
 124826810.654 7  97267646.06744  23753754.083    23753752.348    23753758.600
        42.000          25.0004
 117289296.844 7  91394259.16045  22319412.098    22319412.048    22319414.873
        46.000          32.0004
 109585137.987 8  85391020.08546  20853358.964    20853358.364    20853362.040
        50.000          39.0004
 129233845.015 7 100701707.53143  24592391.883    24592391.723    24592397.134
        42.000          20.0004
 104132929.676 8  80992275.230 7  19466548.425    19466547.358    19466546.650
        49.000          46.000
 126069062.211 7  98235636.07543  23990146.133    23990145.379    23990147.133
        42.000          23.0004
 124543993.055 6  96867541.113 5  23331283.296    23331283.679    23331288.712
        40.000          35.000
 109702149.711 7  85323897.405 7  20514849.858    20514849.872    20514851.003
        42.000          43.000
 117718937.944 8  91729047.56045  22401169.491    22401169.486    22401172.365
        48.000          31.0004
 107987929.468 8  83990609.322 7  20165981.873    20165981.827    20165979.963
        49.000          45.000
 106408175.716 8  82915466.59046  20248804.757    20248804.275    20248805.859
        50.000          41.0004
 107361702.512 8  83503543.276 7  20084220.550    20084219.926    20084221.764
        49.000          45.000
 114616470.524 8  89311539.59446  21810792.399    21810791.168    21810793.417
        49.000          38.0004
 13  2  4  8 51  0.0000000  0 14G01G03G14G32G06R19G22R18R20G20R04G11
                                R05G19
 110922450.205 8  86433084.44146  21107842.852    21107842.295    21107847.702
        49.000          40.0004
 124909098.823 7  97331766.58944  23769412.846    23769411.831    23769417.791
        43.000          25.0004
 117322075.955 7  91419801.28545  22325649.903    22325649.575    22325652.525
        46.000          32.0004
 109529892.269 8  85347971.46246  20842846.217    20842845.764    20842849.020
        50.000          38.0004
 129311629.662 7 100762318.67043  24607194.490    24607194.564    24607199.551
        42.000          20.0004
 104151422.573 8  81006658.569 7  19470005.188    19470004.234    19470004.106
        49.000          46.000
 126122895.533 6  98277584.04143  24000390.005    24000388.302    24000390.726
        40.000          22.0004
 124643695.146 7  96945086.960 5  23349960.729    23349963.478    23349967.642
        42.000          35.000
 109593269.982 7  85239213.195 7  20494488.013    20494488.803    20494490.350
        42.000          44.000
 117617443.343 7  91649960.86445  22381856.235    22381855.290    22381858.925
        47.000          31.0004
 108022763.764 8  84017702.637 7  20172486.039    20172486.492    20172485.110
        49.000          45.000
 106359060.145 8  82877194.70746  20239458.611    20239458.108    20239459.541
        49.000          41.0004
 107294328.119 8  83451140.982 7  20071616.622    20071616.619    20071618.157
        49.000          45.000
 114666820.982 8  89350773.67646  21820373.528    21820372.305    21820374.362
        48.000          38.0004
 13  2  4  8 51 30.0000000  0 14G01G03G14G32G06R19G22R18R20G20R04G11
                                R05G19
 110834815.506 8  86364797.66146  21091166.547    21091165.880    21091171.391
        50.000          40.0004
 124991297.868 7  97395817.69244  23785055.985    23785055.310    23785059.675
        44.000          25.0004
 117355148.063 7  91445571.71745  22331943.898    22331943.199    22331945.845
        46.000          32.0004
 109474852.492 8  85305083.32246  20832372.797    20832372.008    20832375.114
        51.000          39.0004
 129389265.056 6 100822813.49543  24621967.576    24621967.914    24621973.610
        41.000          20.0004
 104170507.520 8  81021502.378 7  19473572.607    19473571.965    19473571.696
        50.000          45.000
 126176600.220 6  98319431.74843  24010608.989    24010606.762    24010611.279
        39.000          21.0004
 124743411.722 7  97022644.026 5  23368639.564    23368643.692    23368646.146
        42.000          35.000
 109484809.451 7  85154855.016 7  20474205.734    20474205.605    20474207.868
        42.000          44.000
 117516014.450 7  91570925.38845  22362554.742    22362554.364    22362557.383
        46.000          31.0004
 108057736.833 8  84044903.870 7  20179017.206    20179017.191    20179016.139
        48.000          45.000
 106310265.928 8  82839173.23146  20230173.224    20230172.889    20230174.375
        49.000          41.0004
 107227268.551 8  83398983.555 7  20059071.897    20059071.874    20059073.302
        49.000          46.000
 114717397.709 8  89390184.05746  21829998.094    21829996.639    21829998.253
        49.000          37.0004
 13  2  4  8 52  0.0000000  0 14G01G03G14G32G06R19G22R18R20G20R04G11
                                R05G19
 110747273.840 8  86296583.37446  21074507.625    21074506.897    21074512.770
        50.000          40.0004
 125073408.167 7  97459799.61644  23800680.674    23800680.019    23800685.091
        45.000          26.0004
 117388514.392 7  91471571.42645  22338293.438    22338292.840    22338295.268
        47.000          32.0004
 109420021.568 8  85262357.93246  20821938.552    20821937.756    20821941.238
        50.000          39.0004
 129466752.157 6 100883192.78543  24636713.131    24636712.525    24636720.252
        40.000          19.0004
 104190186.751 8  81036808.426 7  19477251.751    19477250.744    19477250.212
        49.000          46.000
 126230179.020 7  98361181.36643  24020805.599    24020803.686    24020807.231
        42.000          22.0004
 124843142.898 6  97100212.501 5  23387323.798    23387325.405    23387327.715
        38.000          35.000
 109376775.630 7  85070828.712 7  20454003.475    20454003.232    20454005.031
        42.000          44.000
 117414655.319 7  91491944.26445  22343266.816    22343265.294    22343269.196
        47.000          31.0004
 108092849.649 8  84072213.802 7  20185574.791    20185574.783    20185573.211
        49.000          45.000
 106261798.036 8  82801406.02146  20220950.163    20220949.653    20220951.140
        49.000          41.0004
 107160526.494 8  83347073.077 7  20046586.205    20046586.037    20046588.158
        49.000          46.000
 114768202.451 8  89429772.11046  21839665.959    21839664.296    21839666.016
        49.000          37.0004
 13  2  4  8 52 30.0000000  0 15G01G03G14G32G06R19G22R18R20G20R04G11
                                R05G19G31
 110659833.299 8  86228447.88746  21057868.547    21057867.802    21057873.294
        50.000          39.0004
 125155433.938 7  97523715.67544  23816289.682    23816288.744    23816294.362
        43.000          25.0004
 117422179.548 7  91497803.99945  22344699.196    22344699.251    22344701.425
        46.000          31.0004
 109365405.532 8  85219799.98546  20811545.190    20811544.673    20811548.265
        49.000          38.0004
 129544095.049 6 100943459.68443  24651431.552    24651429.160    24651436.787
        38.000          18.0004
 104210465.529 8  81052580.777 7  19481042.789    19481041.920    19481041.225
        49.000          45.000
 126283637.761 7  98402837.44543  24030978.540    24030977.332    24030980.498
        42.000          23.0004
 124942892.161 6  97177794.976 5  23406008.910    23406011.737    23406016.501
        38.000          35.000
 109269178.681 7  84987142.193 7  20433882.075    20433881.914    20433883.410
        42.000          43.000
 117313372.866 7  91413022.91445  22323993.353    22323992.335    22323995.391
        47.000          31.0004
 108128106.236 8  84099635.552 7  20192159.014    20192158.885    20192157.333
        49.000          44.000
 106213663.913 8  82763898.90346  20211790.699    20211789.872    20211791.675
        49.000          41.0004
 107094108.165 8  83295414.395 7  20034161.386    20034161.298    20034162.888
        49.000          45.000
 114819239.202 8  89469540.96046  21849377.727    21849376.980    21849378.123
        50.000          37.0004
 128268234.662 7  99949277.56443  24408631.284    24408632.267    24408635.210
        42.000          23.0004
 13  2  4  8 53  0.0000000  0 15G01G03G14G32G06R19G22R18R20G20R04G11
                                R05G19G31
 110572496.236 8  86160393.03946  21041249.048    21041247.883    21041253.754
        50.000          40.0004
 125237372.969 7  97587564.12444  23831882.159    23831881.662    23831887.261
        43.000          25.0004
 117456141.756 7  91524268.02945  22351162.414    22351161.973    22351164.121
        47.000          31.0004
 109311004.355 8  85177409.45246  20801193.040    20801192.198    20801195.726
        51.000          38.0004
 129621292.399 6 101003613.14243  24666122.129    24666119.192    24666128.686
        40.000          18.0004
 104231343.197 8  81068818.921 7  19484945.453    19484944.406    19484944.217
        49.000          45.000
 126336976.275 7  98444399.81844  24041128.397    24041127.566    24041131.131
        42.000          24.0004
 125042657.041 6  97255389.590 5  23424698.351    23424699.480    23424706.589
        38.000          34.000
 109162023.086 7  84903798.952 7  20413842.995    20413842.795    20413844.652
        42.000          43.000
 117212167.981 8  91334161.96545  22304734.546    22304734.196    22304737.133
        49.000          31.0004
 108163504.745 8  84127167.700 7  20198769.000    20198768.990    20198767.358
        49.000          44.000
 106165865.382 8  82726653.27646  20202694.939    20202694.135    20202695.749
        50.000          40.0004
 107028013.795 8  83244007.680 7  20021797.166    20021796.848    20021798.688
        49.000          45.000
 114870506.323 8  89509489.31646  21859133.849    21859133.136    21859134.328
        49.000          38.0004
 128157272.630 7  99862813.77243  24387514.940    24387516.657    24387521.891
        43.000          23.0004
 13  2  4  8 53 30.0000000  0 14G01G03G14G32R19G22R18R20G20R04G11R05
                                G19G31
 110485273.001 8  86092426.88846  21024650.738    21024649.898    21024655.918
        49.000          40.0004
 125319231.458 7  97651349.83144  23847459.287    23847459.413    23847464.715
        43.000          25.0004
 117490407.516 8  91550968.59745  22357682.719    22357682.434    22357684.632
        48.000          30.0004
 109256826.120 8  85135192.64346  20790883.465    20790882.807    20790886.140
        50.000          38.0004
 104252826.990 8  81085528.508 7  19488961.884    19488961.071    19488960.756
        50.000          46.000
 126390202.728 7  98485874.89843  24051256.700    24051255.997    24051259.236
        42.000          23.0004
 125142442.882 6  97333000.505 5  23443393.826    23443391.681    23443398.889
        39.000          34.000
 109055321.429 7  84820808.772 7  20393889.542    20393889.161    20393890.903
        43.000          44.000
 117111049.478 7  91255368.36145  22285492.524    22285491.690    22285494.925
        47.000          32.0004
 108199051.424 8  84154815.089 7  20205406.869    20205407.122    20205405.364
        49.000          44.000
 106118412.258 8  82689676.80646  20193664.601    20193664.109    20193665.842
        48.000          41.0004
 106962251.443 8  83192859.188 7  20009494.699    20009494.361    20009496.247
        49.000          45.000
 114922010.075 7  89549622.06346  21868934.856    21868933.212    21868935.615
        47.000          38.0004
 128046274.027 7  99776321.44643  24366393.246    24366393.318    24366398.493
        42.000          23.0004
 13  2  4  8 54  0.0000000  0 14G01G03G14G32R19G22R18R20G20R04G11R05
                                G19G31
 110398165.725 8  86024551.08846  21008074.785    21008074.010    21008079.791
        49.000          40.0004
 125401006.949 7  97715070.86644  23863020.694    23863020.875    23863026.292
        43.000          25.0004
 117524974.985 7  91577904.25245  22364260.490    22364260.242    22364262.969
        46.000          31.0004
 109202870.714 8  85093149.46346  20780615.942    20780615.194    20780618.679
        49.000          39.0004
 104274916.092 8  81102708.902 7  19493091.417    19493090.810    19493090.073
        50.000          46.000
 126443316.893 7  98527262.46443  24061364.483    24061363.534    24061366.450
        42.000          23.0004
 125242247.076 6  97410625.716 5  23462089.125    23462089.190    23462094.190
        39.000          35.000
 108949077.871 7  84738174.902 7  20374021.157    20374020.954    20374023.380
        42.000          44.000
 117010018.687 7  91176643.10545  22266266.947    22266266.110    22266269.372
        46.000          32.0004
 108234743.968 8  84182575.936 7  20212072.501    20212072.763    20212070.851
        49.000          43.000
 106071306.085 8  82652970.68346  20184700.651    20184700.426    20184702.000
        49.000          41.0004
 106896820.774 8  83141968.688 7  19997254.505    19997254.304    19997255.806
        49.000          45.000
 114973748.740 8  89589937.87946  21878780.089    21878778.202    21878781.104
        48.000          37.0004
 127935242.301 7  99689803.31643  24345264.149    24345264.964    24345268.907
        42.000          22.0004
 13  2  4  8 54 30.0000000  0 14G01G03G14G32R19G22R18R20G20R04G11R05
                                G19G31
 110311183.293 8  85956772.56846  20991522.724    20991522.458    20991527.425
        49.000          40.0004
 125482704.384 7  97778731.07244  23878567.955    23878567.276    23878573.384
        44.000          26.0004
 117559849.339 7  91605079.03545  22370897.500    22370896.745    22370900.087
        46.000          31.0004
 109149144.631 8  85051284.98646  20770392.153    20770391.334    20770394.816
        50.000          38.0004
 104297616.063 8  81120364.395 7  19497334.762    19497333.853    19497333.355
        50.000          46.000
 126496325.048 6  98568567.42043  24071451.430    24071450.722    24071453.858
        41.000          23.0004
 125342073.740 6  97488268.371 5  23480788.831    23480790.029    23480797.354
        38.000          35.000
 108843303.241 7  84655905.758 7  20354241.442    20354241.087    20354242.676
        43.000          44.000
 116909082.809 7  91097991.78645  22247059.520    22247058.888    22247061.995
        46.000          32.0004
 108270587.176 8  84210453.949 7  20218765.550    20218765.650    20218764.212
        49.000          44.000
 106024555.336 8  82616541.51746  20175804.418    20175804.153    20175805.530
        49.000          41.0004
 106831728.572 8  83091341.425 7  19985078.269    19985077.838    19985079.182
        50.000          45.000
 115025726.879 8  89630440.27446  21888671.378    21888669.408    21888672.552
        48.000          38.0004
 127824187.740 7  99603267.39443  24324131.180    24324131.498    24324136.338
        43.000          22.0004
 13  2  4  8 55  0.0000000  0 14G01G03G14G32R19G22R18R20G20R04G11R05
                                G19G31
 110224327.872 8  85889093.02146  20974994.368    20974994.597    20974999.543
        50.000          41.0004
 125564321.602 7  97842328.76544  23894099.611    23894098.353    23894105.003
        43.000          26.0004
 117595028.909 7  91632491.64645  22377592.166    22377591.723    22377594.315
        47.000          32.0004
 109095647.919 8  85009599.24246  20760212.222    20760211.270    20760215.016
        50.000          38.0004
 104320926.012 8  81138494.324 7  19501692.432    19501691.714    19501691.077
        50.000          46.000
 126549227.218 6  98609789.80143  24081518.603    24081518.016    24081521.370
        41.000          23.0004
 125441920.217 6  97565926.435 5  23499495.975    23499495.111    23499502.313
        39.000          35.000
 108738002.116 7  84574004.863 7  20334549.973    20334548.986    20334550.326
        42.000          43.000
 116808242.771 7  91019415.16445  22227869.900    22227869.008    22227872.726
        46.000          32.0004
 108306579.174 8  84238447.682 7  20225487.265    20225487.306    20225485.717
        49.000          44.000
 105978161.527 8  82580390.48946  20166975.803    20166975.763    20166977.012
        48.000          41.0004
 106766974.832 8  83040977.423 7  19972964.825    19972964.788    19972965.698
        51.000          45.000
 115077943.301 8  89671128.35546  21898607.578    21898606.309    21898608.952
        48.000          38.0004
 127713113.991 7  99516716.56243  24302993.696    24302994.442    24302999.666
        42.000          23.0004
 13  2  4  8 55 30.0000000  0 14G01G03G14G32R19G22R18R20G20R04G11R05
                                G19G31
 110137603.515 8  85821515.58846  20958491.627    20958491.161    20958496.636
        51.000          41.0004
 125645858.229 6  97905863.66044  23909615.063    23909612.798    23909621.195
        41.000          25.0004
 117630513.496 7  91660141.94345  22384344.307    22384343.995    22384346.848
        46.000          32.0004
 109042382.224 8  84968093.50046  20750076.453    20750075.527    20750079.035
        51.000          39.0004
 104344846.536 8  81157099.136 7  19506163.796    19506162.900    19506162.605
        49.000          46.000
 126602025.294 6  98650931.08143  24091565.981    24091565.451    24091568.423
        41.000          22.0004
 125541785.614 6  97643599.220 5  23518203.583    23518204.394    23518210.707
        39.000          35.000
 108633180.122 7  84492476.656 7  20314947.652    20314947.058    20314948.713
        43.000          44.000
 116707501.032 7  90940915.14345  22208699.819    22208698.622    22208702.439
        46.000          32.0004
 108342719.724 8  84266556.970 7  20232236.381    20232236.577    20232235.100
        49.000          44.000
 105932128.019 8  82544520.19646  20158216.097    20158215.877    20158217.124
        51.000          41.0004
 106702561.242 8  82990877.971 7  19960914.463    19960913.833    19960915.835
        49.000          45.000
 115130397.927 7  89712002.03446  21908589.534    21908588.729    21908590.947
        47.000          38.0004
 127602026.599 7  99430155.08343  24281855.418    24281855.141    24281861.879
        42.000          23.0004
 13  2  4  8 56  0.0000000  0 14G01G03G14G32R19G22R18R20G20R04G11R05
                                G19G31
 110051015.948 8  85754044.74746  20942014.247    20942014.058    20942019.559
        50.000          40.0004
 125727315.492 7  97969336.73144  23925115.332    23925113.048    23925121.587
        42.000          24.0004
 117666305.497 7  91688031.76745  22391155.418    22391154.619    22391158.008
        46.000          32.0004
 108989350.932 8  84926770.42246  20739984.702    20739983.714    20739987.499
        49.000          39.0004
 104369380.286 8  81176180.920 7  19510749.915    19510749.533    19510749.436
        49.000          45.000
 126654722.485 6  98691993.72443  24101594.568    24101592.540    24101595.873
        40.000          22.0004
 125641670.874 6  97721287.463 6  23536915.861    23536917.062    23536924.021
        38.000          36.000
 108528845.308 7  84411327.359 7  20295436.282    20295436.245    20295437.852
        43.000          44.000
 116606861.985 7  90862495.12945  22189548.273    22189547.839    22189551.414
        47.000          32.0004
 108379010.338 8  84294782.977 7  20239013.285    20239013.300    20239012.117
        48.000          44.000
 105886459.862 8  82508934.60346  20149525.983    20149525.247    20149527.081
        49.000          41.0004
 106638491.245 8  82941045.759 7  19948929.033    19948928.526    19948929.856
        50.000          45.000
 115183092.126 8  89753062.40246  21918617.344    21918616.550    21918618.074
        49.000          38.0004
 127490933.217 6  99343588.91943  24260714.558    24260714.077    24260720.183
        41.000          23.0004
 13  2  4  8 56 30.0000000  0 14G01G03G14G32R19G22R18R20G20R04G11R05
                                G19G31
 109964569.701 8  85686684.02446  20925564.518    20925563.697    20925569.455
        51.000          41.0004
 125808693.783 7  98032748.26344  23940600.876    23940599.324    23940607.106
        42.000          24.0004
 117702404.911 7  91716161.12945  22398025.227    22398024.342    22398027.005
        47.000          31.0004
 108936556.192 8  84885631.67546  20729938.307    20729937.188    20729940.930
        50.000          39.0004
 104394528.391 8  81195740.526 7  19515451.292    19515450.663    19515450.520
        50.000          45.000
 126707320.958 6  98732979.46243  24111602.530    24111602.020    24111605.179
        40.000          21.0004
 125741575.815 6  97798990.966 5  23555632.591    23555632.591    23555640.617
        38.000          35.000
 108425004.016 7  84330561.904 7  20276017.527    20276016.901    20276018.622
        42.000          44.000
 116506328.903 7  90784157.68645  22170417.456    22170416.856    22170420.335
        47.000          32.0004
 108415451.283 8  84323125.915 7  20245818.117    20245818.761    20245816.865
        48.000          44.000
 105841161.045 8  82473636.80946  20140905.775    20140905.006    20140906.913
        49.000          41.0004
 106574766.637 8  82891482.183 7  19937007.783    19937007.498    19937009.255
        48.000          45.000
 115236026.434 8  89794309.86246  21928690.626    21928689.623    21928690.621
        49.000          38.0004
 127379839.660 7  99257022.63743  24239574.019    24239573.071    24239579.777
        42.000          23.0004
 13  2  4  8 57  0.0000000  0 14G01G03G14G32R19G22R18R20G20R04G11R05
                                G19G31
 109878274.138 8  85619440.72046  20909142.941    20909142.265    20909147.924
        51.000          41.0004
 125889997.994 6  98096102.05043  23956072.984    23956071.185    23956078.216
        41.000          23.0004
 117738817.216 7  91744534.31145  22404953.446    22404953.599    22404955.850
        47.000          31.0004
 108884005.167 8  84844682.83546  20719937.884    20719936.755    20719940.771
        49.000          38.0004
 104420297.076 8  81215782.805 7  19520268.966    19520268.006    19520267.421
        49.000          45.000
 126759827.533 6  98773893.56343  24121594.881    24121592.958    24121597.159
        40.000          21.0004
 125841504.967 6  97876713.282 5  23574353.082    23574353.125    23574361.435
        38.000          35.000
 108321667.823 7  84250189.310 7  20256692.497    20256692.838    20256693.857
        43.000          43.000
 116405909.871 7  90705909.09245  22151308.664    22151306.890    22151311.880
        47.000          32.0004
 108452047.825 8  84351589.861 7  20252652.767    20252652.849    20252650.968
        49.000          44.000
 105796240.200 8  82438633.53746  20132357.359    20132356.449    20132358.721
        48.000          40.0004
 106511395.123 8  82842193.233 7  19925153.090    19925152.687    19925154.169
        50.000          45.000
 115289206.508 8  89835748.83146  21938810.370    21938809.000    21938810.191
        48.000          37.0004
 127268756.471 6  99170464.45944  24218436.060    24218435.671    24218441.436
        41.000          24.0004
 13  2  4  8 57 30.0000000  0 14G01G03G14G32R19G22R18R20G20R04G11R05
                                G19G31
 109792131.188 8  85552316.33046  20892750.345    20892749.779    20892755.240
        49.000          41.0004
 125971225.933 7  98159396.40743  23971529.839    23971529.979    23971535.042
        43.000          23.0004
 117775540.450 7  91773149.76445  22411942.247    22411941.306    22411944.468
        46.000          31.0004
 108831697.368 8  84803923.53446  20709984.060    20709983.008    20709986.873
        49.000          39.0004
 104446684.729 8  81236306.497 7  19525201.807    19525201.106    19525200.374
        49.000          45.000
 126812242.053 7  98814735.94443  24131568.331    24131568.076    24131570.196
        42.000          20.0004
 125941455.118 6  97954451.989 6  23593077.959    23593077.507    23593085.432
        38.000          36.000
 108218840.522 7  84170212.509 7  20237463.013    20237463.156    20237464.966
        42.000          44.000
 116305605.175 7  90627749.60745  22132221.394    22132220.276    22132224.213
        47.000          32.0004
 108488797.844 8  84380173.184 7  20259515.298    20259515.668    20259514.084
        49.000          44.000
 105751698.654 8  82403925.82346  20123881.714    20123881.137    20123882.617
        50.000          41.0004
 106448375.936 8  82793178.341 7  19913364.185    19913363.895    19913364.867
        49.000          45.000
 115342630.119 8  89877377.56446  21948976.640    21948974.618    21948976.511
        49.000          37.0004
 127157686.948 7  99083916.91444  24197300.345    24197301.083    24197305.557
        43.000          25.0004
 13  2  4  8 58  0.0000000  0 14G01R06G03G14G32R19G22R20G20R04G11R05
                                G19G31
 109706147.470 8  85485316.02646  20876388.514    20876387.773    20876393.325
        49.000          40.0004
 125643990.545 6  97723115.009 5  23545619.944    23545618.694    23545623.188
        40.000          35.000
 126052379.717 7  98222632.98044  23986973.369    23986973.552    23986978.433
        43.000          24.0004
 117812577.523 7  91802009.76845  22418990.105    22418989.421    22418992.243
        45.000          31.0004
 108779637.046 8  84763357.06346  20700077.253    20700076.669    20700080.314
        49.000          39.0004
 104473694.665 8  81257314.192 7  19530250.963    19530250.257    19530249.704
        50.000          45.000
 126864568.929 6  98855509.99843  24141526.279    24141525.532    24141528.350
        40.000          21.0004
 108116530.640 7  84090638.151 7  20218330.594    20218330.636    20218332.499
        42.000          44.000
 116205420.239 7  90549683.45145  22113156.893    22113156.075    22113159.660
        46.000          32.0004
 108525703.773 8  84408877.773 7  20266407.337    20266407.396    20266406.320
        49.000          44.000
 105707542.323 8  82369518.27546  20115479.191    20115478.484    20115480.141
        49.000          41.0004
 106385713.049 8  82744440.554 7  19901641.575    19901641.221    19901642.436
        49.000          45.000
 115396299.710 8  89919197.96946  21959189.293    21959187.326    21959190.163
        48.000          37.0004
 127046639.625 7  98997386.67744  24176168.838    24176169.126    24176173.573
        42.000          25.0004
 13  2  4  8 58 30.0000000  0 14G01R06G03G14G32R19G22R20G20R04G11R05
                                G19G31
 109620329.536 8  85418444.90146  20860057.835    20860057.466    20860062.670
        51.000          41.0004
 125516249.236 6  97623760.855 5  23521678.904    23521678.475    23521684.172
        39.000          35.000
 126133461.676 7  98285813.58544  24002403.681    24002402.924    24002408.523
        42.000          24.0004
 117849930.747 7  91831116.11445  22426098.119    22426097.931    22426100.564
        46.000          31.0004
 108727828.379 8  84722986.68546  20690218.332    20690217.555    20690221.595
        50.000          39.0004
 104501329.805 8  81278808.147 7  19535417.252    19535416.605    19535415.494
        50.000          45.000
 126916812.193 6  98896218.93143  24151468.483    24151467.309    24151470.757
        41.000          22.0004
 108014746.673 7  84011472.866 7  20199297.535    20199296.571    20199298.843
        42.000          44.000
 116105359.879 7  90471714.34545  22094115.523    22094115.082    22094118.306
        47.000          32.0004
 108562767.906 8  84437705.389 7  20273328.979    20273329.236    20273327.753
        49.000          44.000
 105663777.017 8  82335415.42346  20107150.801    20107150.284    20107151.962
        50.000          41.0004
 106323410.993 8  82695983.418 7  19889986.434    19889986.384    19889987.476
        49.000          45.000
 115450217.747 8  89961211.98646  21969449.564    21969448.488    21969450.692
        48.000          37.0004
 126935622.642 7  98910880.09744  24155042.444    24155042.927    24155047.327
        42.000          25.0004
 13  2  4  8 59  0.0000000  0 14G01R06G03G14G32R19G22R20G20R04G11R05
                                G19G31
 109534679.859 8  85351704.87946  20843759.259    20843758.803    20843763.858
        50.000          40.0004
 125388628.594 6  97524500.573 5  23497764.241    23497762.515    23497767.186
        39.000          34.000
 126214469.971 7  98348936.77643  24017819.058    24017818.447    24017823.248
        43.000          23.0004
 117887598.713 7  91860467.73245  22433265.964    22433265.863    22433268.511
        46.000          30.0004
 108676271.503 8  84682812.50846  20680407.462    20680406.685    20680410.574
        49.000          39.0004
 104529589.235 8  81300787.684 7  19540699.750    19540698.873    19540698.604
        49.000          45.000
 126968972.106 7  98936862.92143  24161394.259    24161393.857    24161396.726
        42.000          23.0004
 107913493.093 7  83932720.082 7  20180362.345    20180362.142    20180363.549
        43.000          44.000
 116005425.557 8  90393843.45345  22075099.171    22075098.439    22075101.671
        48.000          32.0004
 108599988.668 8  84466654.828 7  20280279.620    20280279.536    20280278.537
        49.000          44.000
 105620404.529 8  82301618.66247  20098897.465    20098897.075    20098898.439
        50.000          42.0004
 106261469.474 8  82647806.698 7  19878399.144    19878399.346    19878400.484
        49.000          45.000
 115504382.768 8  90003418.44746  21979756.689    21979755.841    21979757.999
        49.000          37.0004
 126824639.697 7  98824400.02744  24133922.554    24133922.881    24133927.550
        43.000          24.0004
 13  2  4  8 59 30.0000000  0 14G01R06G03G14G32R19G22R20G20R04G11R05
                                G19G31
 109449202.134 8  85285098.85146  20827493.311    20827492.949    20827497.906
        50.000          41.0004
 125261131.381 6  97425336.212 5  23473870.706    23473869.099    23473875.296
        37.000          34.000
 126295403.776 7  98412001.93343  24033219.489    24033219.854    24033225.033
        43.000          23.0004
 117925580.790 7  91890064.09045  22440494.116    22440493.476    22440496.656
        45.000          30.0004
 108624967.667 8  84642835.50246  20670644.656    20670644.209    20670647.648
        50.000          39.0004
 104558473.074 8  81323252.857 7  19546099.600    19546098.837    19546098.161
        50.000          45.000
 127021049.898 7  98977442.90343  24171304.207    24171304.046    24171307.320
        42.000          23.0004
 107812775.405 7  83854384.096 7  20161527.607    20161527.373    20161528.415
        43.000          44.000
 115905619.766 7  90316072.71845  22056106.703    22056106.319    22056108.796
        47.000          32.0004
 108637365.532 8  84495725.676 7  20287259.668    20287259.939    20287258.324
        49.000          44.000
 105577427.682 8  82268130.18746  20090719.250    20090718.872    20090720.273
        49.000          41.0004
 106199889.985 8  82599911.552 7  19866879.713    19866879.471    19866880.240
        49.000          45.000
 115558794.142 8  90045816.87746  21990111.009    21990110.470    21990112.192
        49.000          38.0004
 126713696.070 7  98737950.60544  24112810.811    24112810.500    24112815.279
        43.000          24.0004
 13  2  4  9  0  0.0000000  0 14G01R06G03G14G32R19G22R20G20R04G11R05
                                G19G31
 109363902.196 8  85218631.35746  20811261.085    20811260.876    20811265.932
        49.000          41.0004
 125133762.774 6  97326271.876 6  23450003.673    23450002.605    23450007.005
        41.000          36.000
 126376264.749 7  98475010.32543  24048607.261    24048607.141    24048613.467
        42.000          23.0004
 117963879.124 7  91919906.88945  22447782.238    22447781.159    22447784.401
        46.000          30.0004
 108573920.321 8  84603058.36046  20660931.125    20660930.303    20660933.356
        50.000          39.0004
 104587983.488 8  81346205.366 7  19551615.980    19551615.392    19551614.764
        50.000          45.000
 127073049.135 7  99017961.68243  24181199.876    24181199.858    24181201.076
        42.000          23.0004
 107712601.141 7  83776470.780 7  20142794.339    20142794.018    20142795.557
        42.000          44.000
 115805946.400 7  90238405.18845  22037140.030    22037138.714    22037141.742
        45.000          32.0004
 108674900.312 8  84524919.355 7  20294269.253    20294269.134    20294267.942
        48.000          44.000
 105534851.672 8  82234954.05946  20082617.395    20082616.703    20082618.566
        49.000          41.0004
 106138675.608 8  82552300.399 7  19855427.364    19855427.521    19855428.947
        49.000          45.000
 115613453.738 8  90088408.71846  22000513.001    22000511.671    22000513.514
        49.000          38.0004
 126602798.958 7  98651537.41843  24091707.535    24091707.254    24091711.262
        42.000          23.0004
 13  2  4  9  0 30.0000000  0 14G01R06G03G14G32R19G22R20G20R04G11R05
                                G19G31
 109278783.403 8  85152305.01446  20795063.986    20795063.593    20795068.414
        51.000          41.0004
 125006525.186 7  97227309.472 5  23426158.267    23426159.672    23426162.116
        43.000          35.000
 126457052.193 7  98537961.42344  24063981.348    24063981.819    24063986.309
        44.000          24.0004
 118002492.717 7  91949995.34345  22455130.372    22455129.239    22455132.375
        46.000          30.0004
 108523130.377 8  84563481.79746  20651265.887    20651264.998    20651268.465
        50.000          39.0004
 104618120.216 8  81369645.007 7  19557249.948    19557249.615    19557249.031
        50.000          45.000
 127124970.830 7  99058420.04343  24191080.807    24191079.427    24191082.658
        42.000          23.0004
 107612975.585 7  83698984.243 7  20124163.615    20124163.366    20124165.416
        42.000          45.000
 115706407.378 7  90160842.35145  22018197.850    22018197.521    22018199.874
        47.000          32.0004
 108712591.933 8  84554235.021 7  20301307.583    20301307.719    20301306.441
        48.000          44.000
 105492678.885 8  82202092.13346  20074591.940    20074591.403    20074593.320
        49.000          41.0004
 106077827.385 8  82504974.012 7  19844044.878    19844044.772    19844045.856
        49.000          44.000
 115668360.730 8  90131193.34846  22010960.846    22010959.804    22010962.099
        48.000          38.0004
 126491953.364 7  98565164.39143  24070613.562    24070613.590    24070618.211
        43.000          23.0004
 13  2  4  9  1  0.0000000  0 14G01R06G03G14G32R19G22R20G20R04G11R05
                                G19G31
 109193849.315 8  85086122.59846  20778901.672    20778901.062    20778906.025
        52.000          41.0004
 124879421.669 7  97128451.352 5  23402338.970    23402338.666    23402341.632
        42.000          35.000
 126537765.123 7  98600854.45543  24079340.784    24079340.971    24079345.716
        44.000          23.0004
 118041421.324 7  91980329.27245  22462538.072    22462537.587    22462540.456
        46.000          31.0004
 108472598.987 8  84524106.68746  20641649.732    20641648.889    20641652.695
        49.000          39.0004
 104648883.226 8  81393571.771 7  19563000.642    19563000.233    19563000.117
        50.000          45.000
 127176816.024 6  99098818.78143  24200945.884    24200944.119    24200947.859
        41.000          23.0004
 107513904.078 7  83621928.636 7  20105636.891    20105636.380    20105638.165
        42.000          44.000
 115607005.098 8  90083386.03545  21999281.809    21999281.942    21999284.105
        48.000          32.0004
 108750440.019 8  84583672.390 7  20308375.010    20308375.522    20308374.393
        48.000          44.000
 105450912.395 8  82169546.79746  20066644.223    20066643.522    20066645.158
        49.000          41.0004
 106017346.261 8  82457933.156 7  19832731.449    19832730.715    19832731.803
        50.000          45.000
 115723514.387 8  90174170.17346  22021456.243    22021455.177    22021457.343
        49.000          37.0004
 126381164.278 6  98478835.38543  24049531.287    24049530.818    24049535.450
        41.000          23.0004
 13  2  4  9  1 30.0000000  0 15G01R06G03G14G32R19G22R20G23G20R04G11
                                R05G19G31
 109109104.865 8  85020087.94846  20762775.299    20762774.821    20762779.515
        50.000          41.0004
 124752455.556 7  97029700.087 5  23378545.314    23378546.655    23378548.953
        42.000          34.000
 126618404.051 7  98663689.81244  24094685.667    24094686.571    24094690.445
        45.000          24.0004
 118080665.632 7  92010909.19045  22470006.288    22470005.767    22470008.260
        47.000          31.0004
 108422328.729 8  84484935.05746  20632084.063    20632083.220    20632086.471
        50.000          39.0004
 104680273.776 8  81417986.601 7  19568869.128    19568868.137    19568867.932
        50.000          45.000
 127228587.609 6  99139160.15243  24210797.478    24210795.921    24210800.083
        41.000          23.0004
 107415393.433 7  83545309.243 7  20087214.721    20087214.242    20087215.717
        42.000          43.000
 129795047.284 6 101139012.77543  24699172.287    24699171.698    24699176.541
        41.000          19.0004
 115507743.050 7  90006038.99745  21980393.007    21980392.424    21980395.519
        47.000          32.0004
 108788445.219 8  84613231.947 7  20315472.659    20315472.677    20315471.245
        49.000          44.000
 105409556.400 8  82137321.33546  20058774.370    20058773.872    20058775.214
        48.000          41.0004
 105957234.866 8  82411179.855 7  19821485.727    19821485.192    19821486.855
        49.000          46.000
 115778915.793 8  90217340.04346  22031999.059    22031998.243    22031999.726
        48.000          37.0004
 126270438.279 7  98392555.50944  24028460.396    24028460.434    24028464.887
        42.000          24.0004
 13  2  4  9  2  0.0000000  0 15G01R06G03G14G32R19G22R20G23G20R04G11
                                R05G19G31
 109024554.442 8  84954204.50246  20746685.578    20746685.041    20746690.411
        50.000          41.0004
 124625631.527 6  96931059.323 5  23354778.058    23354777.756    23354781.399
        39.000          34.000
 126698969.135 7  98726467.63944  24110016.642    24110017.508    24110021.368
        44.000          24.0004
 118120226.245 7  92041735.57845  22477533.857    22477533.674    22477536.689
        46.000          31.0004
 108372321.513 8  84445968.39346  20622567.559    20622566.874    20622570.486
        51.000          39.0004
 104712292.354 8  81442889.907 7  19574854.475    19574853.982    19574853.696
        50.000          45.000
 127280287.736 7  99179445.87343  24220636.195    24220634.237    24220638.754
        42.000          22.0004
 107317449.613 7  83469130.734 7  20068897.770    20068898.505    20068900.001
        43.000          44.000
 129654726.477 7 101029672.11343  24672468.766    24672469.730    24672472.760
        43.000          18.0004
 115408624.110 7  89928803.49345  21961531.311    21961530.597    21961533.818
        46.000          32.0004
 108826607.931 8  84642914.025 7  20322599.291    20322599.803    20322597.922
        50.000          44.000
 105368614.280 8  82105418.36146  20050983.046    20050982.852    20050984.346
        49.000          41.0004
 105897495.157 8  82364715.646 7  19810309.998    19810309.940    19810311.326
        49.000          45.000
 115834565.063 8  90260703.06346  22042589.170    22042587.908    22042589.473
        50.000          37.0004
 126159781.113 7  98306329.27044  24007403.093    24007402.143    24007407.655
        42.000          24.0004
 13  2  4  9  2 30.0000000  0 15G01R06G03G14G32R19G22R20G23G20R04G11
                                R05G19G31
 108940200.535 8  84888474.19246  20730633.508    20730632.923    20730638.224
        51.000          41.0004
 124498950.168 6  96832529.513 5  23331037.491    23331037.457    23331039.709
        39.000          34.000
 126779458.558 7  98789186.47943  24125334.220    24125333.531    24125338.201
        43.000          23.0004
 118160101.453 7  92072807.08845  22485121.748    22485121.543    22485124.547
        47.000          30.0004
 108322577.447 8  84407206.78046  20613101.399    20613100.578    20613104.394
        49.000          39.0004
 104744938.049 8  81468280.965 7  19580957.211    19580956.777    19580956.495
        49.000          45.000
 127331916.650 7  99219676.08443  24230460.530    24230459.550    24230463.476
        42.000          22.0004
 107220076.945 7  83393396.441 7  20050690.276    20050689.541    20050690.837
        42.000          44.000
 129514377.835 6 100920309.77243  24645761.617    24645760.559    24645765.602
        41.000          18.0004
 115309649.343 8  89851680.34845  21942697.460    21942696.701    21942699.797
        48.000          32.0004
 108864926.493 8  84672717.327 7  20329755.039    20329755.323    20329753.828
        49.000          43.000
 105328087.434 8  82073838.98446  20043271.339    20043270.839    20043272.282
        50.000          41.0004
 105838126.570 8  82318540.079 7  19799204.443    19799203.852    19799205.168
        49.000          45.000
 115890460.350 8  90304257.77646  22053225.194    22053224.240    22053225.997
        49.000          36.0004
 126049196.779 6  98220159.75444  23986359.992    23986358.799    23986364.477
        41.000          24.0004
 13  2  4  9  3  0.0000000  0 15G01R06G03G14G32R19G22R20G23G20R04G11
                                R05G19G31
 108856045.801 8  84822899.06746  20714619.420    20714618.838    20714624.249
        53.000          41.0004
 124372413.387 7  96734112.198 5  23307325.311    23307325.945    23307327.784
        42.000          35.000
 126859870.730 7  98851845.16043  24140635.996    24140635.612    24140640.740
        43.000          23.0004
 118200289.775 7  92104122.60445  22492769.781    22492769.012    22492772.209
        46.000          30.0004
 108273096.713 8  84368650.35146  20603685.965    20603685.057    20603688.611
        50.000          39.0004
 104778209.183 8  81494158.470 7  19587177.312    19587176.105    19587176.143
        50.000          45.000
 127383474.509 7  99259850.94043  24240272.230    24240271.985    24240274.055
        42.000          22.0004
 107123279.843 7  83318109.810 7  20032588.658    20032588.093    20032589.532
        43.000          45.000
 129374004.467 6 100810928.14642  24619049.836    24619046.205    24619051.597
        38.000          17.0004
 115210819.960 8  89774670.48045  21923890.140    21923889.413    21923892.799
        48.000          32.0004
 108903399.269 8  84702640.571 7  20336939.584    20336939.874    20336938.584
        49.000          44.000
 105287978.007 8  82042584.86046  20035638.775    20035637.896    20035639.636
        49.000          40.0004
 105779129.489 8  82272653.462 7  19788167.972    19788167.467    19788168.805
        49.000          45.000
 115946600.316 8  90348003.14046  22063908.617    22063907.468    22063909.358
        49.000          37.0004
 125938689.325 7  98134050.16844  23965331.437    23965331.528    23965334.101
        43.000          25.0004
 13  2  4  9  3 30.0000000  0 15G01R06G03G14G32R19G22R20G23G20R04G11
                                R05G19G31
 108772095.444 8  84757483.20246  20698644.274    20698643.478    20698648.947
        50.000          41.0004
 124246025.454 7  96635810.624 5  23283640.308    23283641.204    23283642.668
        42.000          35.000
 126940206.213 7  98914444.08543  24155923.283    24155922.719    24155928.694
        43.000          23.0004
 118240792.231 7  92135682.89145  22500477.189    22500476.448    22500479.796
        44.000          30.0004
 108223881.966 8  84330301.18946  20594320.666    20594319.976    20594323.179
        50.000          39.0004
 104812107.499 8  81520523.793 7  19593513.884    19593513.159    19593512.908
        50.000          45.000
 127434964.413 6  99299972.82943  24250070.162    24250069.514    24250072.601
        41.000          20.0004
 107027065.003 7  83243276.062 7  20014595.461    20014595.318    20014596.810
        43.000          44.000
 129233612.118 6 100701531.71342  24592334.183    24592330.051    24592336.204
        41.000          16.0004
 115112139.659 7  89697776.76945  21905112.077    21905111.166    21905114.790
        47.000          31.0004
 108942027.540 8  84732684.751 7  20344152.757    20344153.273    20344152.031
        48.000          44.000
 105248290.086 8  82011659.19746  20028086.518    20028085.978    20028087.336
        49.000          41.0004
 105720506.526 8  82227057.817 7  19777200.724    19777200.437    19777202.069
        49.000          45.000
 116002986.036 8  90391940.01446  22074638.086    22074637.460    22074639.302
        49.000          36.0004
 125828265.456 7  98048005.69544  23944317.859    23944317.884    23944320.676
        44.000          25.0004
 13  2  4  9  4  0.0000000  0 15G01R06G03G14G32R19G22R20G23G20R04G11
                                R05G19G31
 108688350.439 8  84692227.35346  20682708.156    20682707.495    20682712.885
        51.000          41.0004
 124119786.479 6  96537624.891 6  23259983.250    23259982.897    23259986.207
        41.000          36.000
 127020462.273 6  98976981.11043  24171195.108    24171195.073    24171201.488
        41.000          23.0004
 118281605.639 7  92167485.49645  22508243.802    22508243.341    22508246.386
        46.000          30.0004
 108174931.930 8  84292158.30446  20585006.083    20585005.044    20585008.319
        50.000          39.0004
 104846629.761 8  81547374.415 7  19599967.395    19599966.815    19599966.549
        49.000          45.000
 127486384.857 6  99340040.59143  24259856.092    24259854.439    24259857.348
        41.000          20.0004
 106931435.060 7  83168897.241 7  19996712.697    19996712.120    19996713.621
        43.000          44.000
 129093201.961 6 100592121.33942  24565615.293    24565612.947    24565614.837
        36.000          17.0004
 115013607.976 7  89620998.86345  21886362.044    21886361.247    21886364.758
        47.000          32.0004
 108980808.101 8  84762847.380 7  20351394.970    20351395.429    20351393.810
        48.000          44.000
 105209023.919 8  81981062.16846  20020614.562    20020614.010    20020615.498
        48.000          41.0004
 105662255.798 8  82181751.686 7  19766303.332    19766302.687    19766304.731
        49.000          45.000
 116059614.383 8  90436065.93646  22085414.563    22085413.132    22085415.275
        49.000          36.0004
 125717927.933 7  97962028.50044  23923321.601    23923320.654    23923325.284
        42.000          24.0004
 13  2  4  9  4 30.0000000  0 15G01R06G03G14G32R19G22R20G23G20R04G11
                                R05G19G31
 108604818.471 8  84627137.51047  20666812.444    20666812.073    20666817.374
        49.000          42.0004
 123993703.036 6  96439560.109 5  23236353.822    23236354.167    23236356.523
        40.000          35.000
 127100642.193 7  99039458.80843  24186452.668    24186453.089    24186459.725
        43.000          23.0004
 118322733.831 7  92199533.38545  22516070.285    22516069.614    22516073.080
        45.000          30.0004
 108126251.768 8  84254225.69446  20575742.398    20575741.766    20575744.938
        49.000          39.0004
 104881780.022 8  81574713.464 7  19606538.562    19606537.847    19606537.495
        49.000          44.000
 127537741.225 6  99380058.41843  24269628.103    24269626.690    24269629.417
        41.000          20.0004
 106836399.525 7  83094980.699 7  19978940.448    19978939.834    19978941.381
        43.000          44.000
 128952782.041 6 100482703.41943  24538895.029    24538892.817    24538895.103
        40.000          18.0004
 114915231.302 7  89544341.73245  21867641.910    21867640.879    21867644.152
        47.000          32.0004
 109019744.513 7  84793131.230 7  20358666.529    20358666.305    20358665.207
        47.000          44.000
 105170186.181 8  81950798.98346  20013223.993    20013223.355    20013224.878
        49.000          41.0004
 105604382.585 8  82136739.185 7  19755476.957    19755476.802    19755478.650
        49.000          45.000
 116116488.734 7  90480383.55446  22096237.843    22096235.646    22096238.419
        47.000          37.0004
 125607685.170 7  97876125.12944  23902343.228    23902343.359    23902347.097
        43.000          25.0004
 13  2  4  9  5  0.0000000  0 15G01R06G03G14G32R19G22R20G23G20R04G11
                                R05G19G31
 110096924.519 8  85789817.55747  20950750.746    20950750.301    20950755.751
        51.000          42.0004
 125467530.891 6  97585870.764 5  23512548.631    23512547.456    23512550.624
        39.000          35.000
 128756160.809 7 100329473.13143  24501488.071    24501487.916    24501494.619
        42.000          23.0004
 119939593.533 7  93459424.00645  22823748.587    22823747.903    22823751.342
        45.000          30.0004
 109653262.657 8  85444104.30246  20866323.262    20866322.519    20866325.666
        49.000          39.0004
 106521242.599 8  82849850.986 7  19913019.044    19913018.217    19913017.878
        49.000          45.000
 129164451.904 6 100647625.06543  24579181.345    24579179.297    24579182.319
        41.000          20.0004
 108345090.223 7  84268406.796 7  20261073.833    20261073.318    20261074.368
        44.000          45.000
 130387779.626 6 101600883.53543  24811966.541    24811965.445    24811966.455
        41.000          19.0004
 116392433.403 8  90695408.32745  22148743.855    22148742.926    22148746.496
        48.000          32.0004
 110664208.603 8  86072158.822 7  20665758.609    20665758.998    20665757.413
        48.000          44.000
 106707199.473 8  83148471.66246  20305707.763    20305707.454    20305708.908
        49.000          41.0004
 107149450.837 8  83338458.929 7  20044514.318    20044513.633    20044516.002
        49.000          46.000
 117749025.090 8  91752489.75746  22406898.678    22406897.685    22406899.767
        49.000          37.0004
 127072965.147 7  99017901.79544  24181176.383    24181176.587    24181179.716
        42.000          25.0004
 13  2  4  9  5 30.0000000  0 15G01R06G03G14G32R19G22R20G23G20R04G11
                                R05G19G31
 110013827.866 8  85725066.92447  20934937.888    20934937.486    20934942.933
        51.000          42.0004
 125341765.205 6  97488053.134 5  23488980.612    23488979.646    23488984.008
        40.000          35.000
 128836184.299 7 100391828.92743  24516716.129    24516715.826    24516721.662
        43.000          22.0004
 119981348.196 7  93491960.05544  22831694.420    22831693.733    22831696.975
        46.000          29.0004
 109605123.898 8  85406593.56646  20857162.459    20857161.462    20857165.260
        50.000          40.0004
 106557645.953 8  82878164.668 7  19919823.824    19919823.115    19919823.449
        49.000          45.000
 129215682.923 6 100687545.21543  24588929.995    24588929.814    24588931.278
        41.000          19.0004
 108251257.228 7  84195425.581 7  20243526.033    20243525.834    20243527.144
        43.000          44.000
 130247350.531 7 101491458.47943  24785243.297    24785242.608    24785242.840
        45.000          20.0004
 116294370.970 8  90618996.06045  22130083.713    22130082.883    22130085.581
        48.000          33.0004
 110703453.747 8  86102682.800 7  20673087.072    20673087.247    20673086.067
        48.000          44.000
 106669225.074 8  83118881.20546  20298481.486    20298480.688    20298482.290
        50.000          41.0004
 107092334.039 8  83294034.745 7  20033829.518    20033829.847    20033830.644
        50.000          45.000
 117806388.267 8  91797188.28846  22417814.661    22417813.448    22417815.864
        48.000          37.0004
 126962926.868 7  98932157.74644  24160235.973    24160236.760    24160240.559
        43.000          24.0004
 13  2  4  9  6  0.0000000  0 15G01R06G03G14G32R19G22R20G23G20R04G11
                                R05G19G31
 109930954.963 8  85660490.64546  20919167.672    20919167.308    20919172.620
        51.000          41.0004
 125216163.503 7  97390362.998 5  23465442.804    23465442.744    23465445.575
        42.000          35.000
 128916129.530 7 100454123.75343  24531929.223    24531928.451    24531934.472
        42.000          22.0004
 120023415.670 7  93524739.85444  22839699.536    22839699.063    22839701.971
        45.000          29.0004
 109557258.196 8  85369295.60146  20848054.095    20848053.205    20848056.591
        49.000          39.0004
 106594675.926 8  82906965.729 7  19926746.172    19926745.371    19926745.921
        50.000          45.000
 129266853.702 6 100727418.44243  24598667.610    24598667.273    24598669.155
        40.000          19.0004
 108158034.105 7  84122918.722 7  20226092.635    20226092.300    20226094.035
        43.000          45.000
 130106923.958 7 101382035.40543  24758520.374    24758519.285    24758522.528
        44.000          21.0004
 116196469.715 8  90542709.38945  22111453.596    22111452.874    22111455.621
        48.000          34.0004
 110742853.107 7  86133326.728 7  20680444.939    20680444.960    20680443.596
        47.000          44.000
 106631687.098 8  83089630.81546  20291338.301    20291337.454    20291339.032
        49.000          41.0004
 107035597.668 8  83249906.428 7  20023215.782    20023215.723    20023216.977
        50.000          45.000
 117863994.998 8  91842076.58946  22428776.761    22428775.926    22428778.012
        48.000          37.0004
 126852998.992 7  98846499.68944  24139318.244    24139319.070    24139321.295
        43.000          24.0004
 13  2  4  9  6 30.0000000  0 15G01R06G03G14G32R19G22R20G23G20R04G11
                                R05G19G31
 109848305.158 8  85596088.19846  20903440.023    20903439.333    20903444.680
        49.000          41.0004
 125090723.758 7  97292798.866 5  23441935.346    23441935.062    23441938.118
        42.000          35.000
 128995991.391 6 100516353.57343  24547127.337    24547125.965    24547132.585
        41.000          21.0004
 120065791.391 7  93557759.85244  22847762.896    22847762.626    22847766.155
        46.000          29.0004
 109509662.496 8  85332208.03746  20838996.810    20838995.869    20838999.277
        51.000          39.0004
 106632327.723 8  82936250.426 7  19933785.023    19933784.691    19933784.077
        50.000          45.000
 129317961.582 6 100767242.66043  24608392.913    24608392.557    24608394.683
        41.000          19.0004
 108065421.556 7  84050886.734 7  20208773.403    20208773.261    20208775.096
        44.000          45.000
 129966499.153 7 101272613.70943  24731798.741    24731797.203    24731802.626
        44.000          22.0004
 116098727.622 8  90466546.73645  22092853.765    22092853.138    22092856.025
        49.000          34.0004
 110782402.009 8  86164086.955 7  20687829.874    20687830.038    20687829.137
        48.000          44.000
 106594583.929 8  83060719.23946  20284277.858    20284277.210    20284279.057
        49.000          41.0004
 106979237.918 8  83206071.043 7  20012672.799    20012672.444    20012674.071
        50.000          45.000
 117921841.110 7  91887151.43546  22439784.498    22439783.537    22439785.700
        47.000          37.0004
 126743182.287 7  98760928.26344  24118419.928    24118421.060    24118423.853
        44.000          24.0004
 13  2  4  9  7  0.0000000  0 15G01R06G03G14G32R19G22R20G23G20R04G11
                                R05G19G31
 109765886.240 8  85531865.66846  20887756.316    20887755.712    20887761.075
        50.000          41.0004
 124965451.948 7  97195365.348 5  23418460.236    23418460.378    23418462.856
        42.000          35.000
 129075773.084 6 100578520.95743  24562309.168    24562308.918    24562315.034
        41.000          22.0004
 120108479.027 7  93591022.87744  22855886.356    22855885.615    22855889.446
        45.000          29.0004
 109462342.025 8  85295334.93346  20829992.060    20829990.924    20829994.444
        49.000          39.0004
 106670605.105 8  82966021.682 7  19940940.811    19940940.300    19940939.525
        49.000          44.000
 129369012.161 6 100807022.19743  24618108.338    24618107.764    24618110.673
        41.000          20.0004
 107973428.782 7  83979336.808 7  20191571.060    20191569.921    20191571.990
        43.000          45.000
 129826084.155 7 101163199.63243  24705078.445    24705078.346    24705082.061
        44.000          22.0004
 116001150.748 8  90390512.83145  22074285.402    22074285.163    22074287.627
        48.000          34.0004
 110822104.175 8  86194966.393 7  20695244.193    20695244.313    20695243.170
        48.000          43.000
 106557922.374 8  83032151.78846  20277301.275    20277300.853    20277302.683
        49.000          41.0004
 106923260.255 8  83162532.861 7  20002200.977    20002200.978    20002202.100
        50.000          45.000
 117979929.870 8  91932415.33546  22450838.598    22450837.442    22450839.756
        48.000          36.0004
 126633485.948 7  98675450.60544  24097545.439    24097545.794    24097550.066
        42.000          25.0004
 13  2  4  9  7 30.0000000  0 15G01R06G03G14G32R19G22R20G23G20R04G11
                                R05G19G31
 109683701.503 8  85467825.60946  20872116.987    20872116.512    20872121.944
        50.000          41.0004
 124840351.563 6  97098065.118 5  23395014.409    23395014.976    23395018.549
        40.000          35.000
 129155473.929 6 100640625.34043  24577476.212    24577474.936    24577481.440
        41.000          22.0004
 120151477.529 7  93624528.15444  22864068.731    22864068.107    22864071.324
        46.000          29.0004
 109415297.572 8  85258676.91546  20821039.846    20821038.728    20821042.126
        50.000          39.0004
 106709507.402 8  82996278.982 7  19948213.679    19948212.301    19948212.107
        50.000          45.000
 129420006.115 6 100846757.66343  24627811.737    24627810.636    24627814.811
        41.000          20.0004
 107882060.810 7  83908272.828 7  20174483.397    20174482.854    20174485.519
        42.000          44.000
 129685682.704 7 101053796.16343  24678360.117    24678359.841    24678366.215
        45.000          23.0004
 115903741.069 8  90314609.18945  22055748.743    22055748.313    22055751.008
        49.000          34.0004
 110861959.008 7  86225964.567 7  20702687.747    20702687.364    20702685.798
        47.000          43.000
 106521704.577 8  83003930.12346  20270409.127    20270408.603    20270410.657
        49.000          40.0004
 106867665.368 8  83119292.388 7  19991800.719    19991800.387    19991801.902
        50.000          45.000
 118038260.216 8  91977867.49246  22461938.722    22461937.427    22461939.779
        48.000          36.0004
 126523914.907 7  98590070.57044  24076694.769    24076694.677    24076699.581
        42.000          25.0004
 13  2  4  9  8  0.0000000  0 15G01R06G03G14G32R19G22R20G23G20R04G11
                                R05G19G31
 109601754.572 8  85403970.85746  20856523.049    20856522.430    20856528.047
        51.000          41.0004
 124715424.343 6  97000899.601 5  23371603.457    23371601.090    23371606.272
        37.000          35.000
 129235093.562 6 100702666.42343  24592627.721    24592625.552    24592632.522
        41.000          22.0004
 120194786.726 7  93658275.54044  22872309.969    22872309.836    22872312.729
        46.000          29.0004
 109368530.290 8  85222234.86646  20812139.999    20812139.516    20812142.759
        50.000          39.0004
 106749033.957 8  83027021.818 7  19955602.898    19955601.831    19955601.507
        49.000          45.000
 129470944.863 6 100886450.08143  24637504.967    24637504.691    24637508.645
        41.000          20.0004
 107791322.705 7  83837698.758 7  20157515.183    20157514.458    20157516.692
        42.000          44.000
 129545299.016 7 100944406.53844  24651645.729    24651645.501    24651651.559
        45.000          24.0004
 115806500.648 8  90238837.44745  22037244.568    22037244.416    22037246.896
        48.000          34.0004
 110901965.953 8  86257081.040 7  20710158.771    20710158.544    20710156.839
        48.000          43.000
 106485933.069 8  82976056.21246  20263601.732    20263601.405    20263603.227
        49.000          40.0004
 106812453.850 8  83076350.082 7  19981472.288    19981471.929    19981473.395
        50.000          45.000
 118096831.746 7  92023507.59546  22473084.529    22473083.694    22473085.761
        46.000          37.0004
 126414474.102 7  98504792.01544  24055869.249    24055868.732    24055873.668
        42.000          25.0004
 13  2  4  9  8 30.0000000  0 15G01R06G03G14G32R19G22R20G23G20R04G11
                                R05G19G31
 109520049.290 8  85340304.41046  20840975.046    20840974.252    20840979.830
        48.000          41.0004
 124590673.470 6  96903871.198 5  23348224.376    23348224.826    23348228.978
        38.000          35.000
 129314631.446 7 100764643.81543  24607762.542    24607760.320    24607769.813
        42.000          22.0004
 120238405.902 7  93692264.46044  22880611.052    22880610.611    22880613.308
        46.000          29.0004
 109322041.490 8  85186009.82346  20803293.854    20803293.617    20803296.024
        52.000          40.0004
 106789184.323 8  83058249.842 7  19963107.913    19963106.818    19963107.328
        49.000          44.000
 129521830.270 6 100926100.93243  24647188.236    24647187.684    24647192.131
        40.000          20.0004
 107701219.748 7  83767618.677 7  20140665.977    20140665.296    20140666.891
        42.000          44.000
 129404936.981 7 100835033.77844  24624935.398    24624936.484    24624941.318
        45.000          25.0004
 115709431.759 8  90163199.38745  22018772.995    22018772.866    22018775.529
        49.000          34.0004
 110942124.906 8  86288315.742 7  20717658.331    20717658.113    20717655.963
        48.000          43.000
 106450611.069 8  82948532.56246  20256880.668    20256880.069    20256881.457
        48.000          40.0004
 106757627.045 8  83033707.014 7  19971216.014    19971215.639    19971217.123
        51.000          46.000
 118155644.087 8  92069335.33146  22484276.132    22484275.136    22484277.347
        48.000          36.0004
 126305168.982 7  98419619.16344  24035069.199    24035069.684    24035073.754
        43.000          26.0004
 13  2  4  9  9  0.0000000  0 16G01R06G03G14G32R19G22R20G23G20R04G11
                                R05R14G19G31
 109438590.506 8  85276830.04046  20825474.019    20825473.660    20825478.920
        50.000          41.0004
 124466102.534 6  96806982.816 5  23324881.725    23324881.619    23324884.141
        41.000          35.000
 129394088.102 6 100826557.91643  24622882.893    24622880.859    24622889.724
        41.000          23.0004
 120282335.873 7  93726495.56644  22888970.338    22888970.205    22888973.205
        45.000          29.0004
 109275833.518 8  85150003.61646  20794500.785    20794500.116    20794502.875
        51.000          40.0004
 106829959.293 8  83089963.672 7  19970730.680    19970729.976    19970729.650
        50.000          45.000
 129572664.874 6 100965712.26743  24656862.418    24656861.516    24656865.232
        41.000          19.0004
 107611758.049 7  83698037.345 7  20123935.631    20123935.897    20123937.576
        43.000          45.000
 129264601.956 7 100725682.03944  24598230.416    24598231.882    24598236.118
        45.000          25.0004
 115612537.939 7  90087697.73745  22000334.732    22000334.045    22000337.060
        47.000          33.0004
 110982436.650 8  86319669.277 7  20725185.490    20725185.901    20725184.660
        49.000          43.000
 106415742.008 8  82921361.84146  20250245.415    20250244.805    20250246.118
        48.000          41.0004
 106703187.067 8  82991364.808 7  19961031.743    19961031.448    19961032.706
        50.000          46.000
 126559057.648 6  98434820.827 5  23742142.635                    23742152.693
        38.000          32.000
 118214697.770 8  92115351.12246  22495513.926    22495512.468    22495514.885
        48.000          36.0004
 126196005.892 7  98334557.00644  24014296.648    24014296.677    24014300.908
        44.000          26.0004
 13  2  4  9  9 30.0000000  0 16G01R06G03G14G32R19G22R20G23G20R04G11
                                R05R14G19G31
 109357380.487 8  85213549.50447  20810020.169    20810020.042    20810025.270
        51.000          42.0004
 124341712.960 7  96710235.461 5  23301570.636    23301570.394    23301572.954
        42.000          35.000
 129473461.522 7 100888407.16843  24637986.379    24637985.624    24637994.261
        42.000          22.0004
 120326574.756 7  93760967.36744  22897388.912    22897388.572    22897391.756
        44.000          29.0004
 109229906.047 8  85114215.98146  20785760.934    20785760.063    20785763.439
        51.000          39.0004
 106871356.938 8  83122161.806 7  19978469.461    19978468.998    19978468.542
        49.000          45.000
 129623448.579 6 101005283.84443  24666526.144    24666524.153    24666529.278
        39.000          18.0004
 107522941.249 7  83628957.620 7  20107326.262    20107326.698    20107328.238
        43.000          45.000
 129124296.495 7 100616353.35744  24571531.233    24571532.338    24571536.215
        45.000          26.0004
 115515819.615 7  90012332.85045  21981929.387    21981929.053    21981931.802
        45.000          33.0004
 111022899.386 8  86351140.253 7  20732741.747    20732741.486    20732740.699
        48.000          43.000
 106381327.109 8  82894545.02546  20243696.557    20243695.805    20243697.274
        49.000          41.0004
 106649133.336 8  82949323.038 7  19950919.873    19950919.887    19950921.065
        50.000          46.000
 126443528.788 6  98344965.207 5  23720471.613                    23720479.541
        39.000          31.000
 118273990.494 8  92161553.20046  22506796.698    22506795.383    22506797.445
        48.000          36.0004
 126086988.587 7  98249608.44544  23993551.167    23993551.557    23993555.476
        44.000          26.0004
 13  2  4  9 10  0.0000000  0 16G01R06G03G14G32R19G22R20G23G20R04G11
                                R05R14G19G31
 109276422.540 8  85150465.38746  20794614.514    20794614.025    20794619.444
        50.000          41.0004
 124217506.742 7  96613630.777 5  23278295.701    23278295.346    23278296.099
        43.000          35.000
 129552750.647 6 100950190.71043  24653075.207    24653074.295    24653083.181
        40.000          22.0004
 120371121.832 7  93795679.32244  22905866.011    22905865.254    22905868.991
        45.000          29.0004
 109184259.954 8  85078647.59246  20777074.658    20777073.820    20777077.625
        51.000          40.0004
 106913376.150 8  83154843.362 7  19986324.682    19986324.058    19986323.556
        49.000          45.000
 129674182.657 6 101044816.78543  24676180.058    24676179.111    24676183.558
        39.000          18.0004
 107434774.102 7  83560383.182 7  20090839.162    20090839.008    20090840.704
        43.000          45.000
 128984024.256 7 100507050.56144  24544837.420    24544839.196    24544843.130
        46.000          26.0004
 115419278.956 7  89937106.39345  21963558.410    21963557.863    21963560.659
        47.000          32.0004
 111063512.531 7  86382728.214 7  20740325.901    20740325.863    20740325.011
        47.000          43.000
 106347368.726 8  82868083.93246  20237234.323    20237233.793    20237235.295
        48.000          41.0004
 106595466.382 8  82907582.078 7  19940880.262    19940880.454    19940881.467
        51.000          46.000
 126328346.520 6  98255379.198 5  23698863.656                    23698872.276
        38.000          31.000
 118333521.453 7  92207940.90346  22518125.167    22518124.016    22518126.194
        47.000          36.0004
 125978121.811 7  98164777.19344  23972834.811    23972835.320    23972839.041
        45.000          26.0004
 13  2  4  9 10 30.0000000  0 16G01R06G03G14G32R19G22R20G23G20R04G11
                                R05R14G19G31
 109195721.640 8  85087581.56047  20779257.723    20779257.019    20779262.459
        51.000          42.0004
 124093487.982 7  96517171.839 5  23255053.069    23255054.095    23255055.417
        42.000          35.000
 129631956.362 6 101011909.27843  24668147.212    24668147.522    24668155.485
        41.000          22.0004
 120415977.741 7  93830631.90245  22914402.149    22914401.486    22914404.957
        45.000          30.0004
 109138897.563 8  85043300.27346  20768442.409    20768441.713    20768445.264
        51.000          40.0004
 106956017.625 8  83188008.921 7  19994295.731    19994295.259    19994295.018
        49.000          45.000
 129724869.489 6 101084312.89942  24685826.001    24685824.010    24685827.166
        40.000          16.0004
 107347262.929 7  83492318.935 7  20074474.963    20074473.131    20074475.575
        43.000          45.000
 128843790.504 7 100397777.73144  24518151.124    24518153.244    24518157.732
        45.000          26.0004
 115322919.255 7  89862020.93445  21945221.740    21945220.812    21945224.096
        47.000          32.0004
 111104276.851 8  86414433.768 7  20747938.705    20747938.909    20747937.584
        48.000          43.000
 106313870.691 8  82841981.55746  20230859.819    20230859.542    20230860.953
        49.000          40.0004
 106542188.488 8  82866143.728 7  19930913.541    19930912.716    19930914.820
        50.000          46.000
 126213518.488 6  98166068.660 5  23677321.918                    23677330.408
        38.000          31.000
 118393291.403 8  92254514.82846  22529499.304    22529497.833    22529500.059
        48.000          36.0004
 125869411.840 7  98080068.14444  23952147.162    23952148.010    23952151.233
        44.000          26.0004
 13  2  4  9 11  0.0000000  0 16G01R06G03G14G32R19G22R20G23G20R04G11
                                R05R14G19G31
 109115278.825 8  85024898.84347  20763949.890    20763949.345    20763954.795
        51.000          42.0004
 123969657.013 6  96420858.963 5  23231847.772    23231847.920    23231849.602
        41.000          35.000
 129711075.214 7 101073560.12443  24683204.415    24683203.695    24683211.256
        43.000          22.0004
 120461139.021 7  93865822.45144  22922996.299    22922995.817    22922998.793
        45.000          29.0004
 109093817.436 8  85008172.88746  20759863.975    20759863.369    20759866.841
        52.000          40.0004
 106999278.136 8  83221655.935 7  20002383.121    20002381.886    20002381.996
        49.000          45.000
 129775508.341 6 101123771.64842  24695462.538    24695459.928    24695465.309
        39.000          16.0004
 107260409.989 7  83424766.652 7  20058232.426    20058231.430    20058233.846
        43.000          45.000
 128703596.524 7 100288535.89144  24491472.915    24491474.429    24491478.903
        45.000          25.0004
 115226740.120 8  89787076.18645  21926919.540    21926919.291    21926921.555
        48.000          32.0004
 111145189.712 8  86446254.858 7  20755578.774    20755579.313    20755577.839
        48.000          44.000
 106280832.766 8  82816237.71446  20224572.899    20224572.505    20224573.892
        49.000          40.0004
 106489297.652 8  82825006.413 7  19921019.381    19921018.998    19921020.239
        50.000          46.000
 126099048.395 6  98077036.480 5  23655846.625                    23655856.006
        38.000          31.000
 118453297.156 8  92301272.50446  22540917.527    22540916.747    22540919.021
        48.000          36.0004
 125760861.429 7  97995483.46244  23931490.512    23931490.836    23931495.587
        44.000          26.0004
 13  2  4  9 11 30.0000000  0 16G01R06G03G14G32R19G22R20G23G20R04G11
                                R05R14G19G31
 109035097.873 8  84962420.18347  20748692.149    20748691.658    20748696.974
        49.000          42.0004
 123846015.652 6  96324693.564 5  23208677.097    23208677.173    23208679.234
        41.000          35.000
 129790107.299 6 101135143.37643  24698243.605    24698243.274    24698249.215
        41.000          21.0004
 120506605.692 7  93901250.97144  22931647.739    22931647.496    22931650.573
        45.000          29.0004
 109049020.796 8  84973266.41246  20751339.682    20751339.028    20751342.370
        49.000          40.0004
 107043156.973 8  83255783.874 7  20010585.987    20010585.170    20010585.079
        49.000          45.000
 129826100.532 6 101163194.03142  24705090.075    24705087.701    24705092.273
        40.000          17.0004
 107174220.218 7  83357730.164 7  20042114.772    20042114.122    20042115.937
        44.000          45.000
 128563446.639 7 100179328.40043  24464802.848    24464803.816    24464808.051
        42.000          23.0004
 115130743.870 7  89712273.94045  21908651.794    21908651.824    21908654.420
        47.000          32.0004
 111186250.600 7  86478191.065 7  20763245.915    20763246.545    20763245.672
        47.000          44.000
 106248257.856 8  82790854.65346  20218374.349    20218373.854    20218375.234
        48.000          41.0004
 106436795.150 8  82784171.148 7  19911197.553    19911197.344    19911198.608
        50.000          46.000
 125984942.600 6  97988287.709 5  23634441.568                    23634449.061
        37.000          31.000
 118513538.114 8  92348213.44946  22552381.631    22552380.850    22552382.825
        50.000          36.0004
 125652475.676 6  97911027.12844  23910866.212    23910864.621    23910870.756
        41.000          26.0004
 13  2  4  9 12  0.0000000  0 16G01R06G03G14G32R19G22R20G23G20R04G11
                                R05R14G19G31
 108955183.757 8  84900149.44947  20733484.838    20733484.122    20733489.925
        51.000          42.0004
 123722567.603 6  96228678.476 6  23185543.451    23185543.117    23185545.261
        40.000          36.000
 129869052.949 7 101196659.26043  24713266.090    24713264.857    24713273.252
        42.000          21.0004
 120552378.246 7  93936917.82444  22940357.940    22940357.533    22940360.967
        44.000          28.0004
 109004510.045 8  84938582.70046  20742869.427    20742868.961    20742872.207
        50.000          40.0004
 107087654.540 8  83290393.059 7  20018904.200    20018903.643    20018903.568
        50.000          45.000
 129876648.950 6 101202582.29442  24714708.452    24714707.833    24714712.420
        40.000          17.0004
 107088700.030 7  83291214.441 7  20026121.286    20026121.250    20026123.180
        44.000          46.000
 128423346.204 6 100070159.45843  24438141.713    24438142.298    24438146.688
        41.000          22.0004
 115034933.895 7  89637616.84345  21890419.830    21890419.035    21890422.301
        46.000          32.0004
 111227460.447 7  86510243.134 7  20770941.502    20770941.682    20770941.142
        47.000          44.000
 106216149.522 8  82765835.16746  20212264.563    20212263.991    20212265.301
        48.000          41.0004
 106384682.855 8  82743639.383 7  19901448.477    19901448.877    19901450.018
        50.000          46.000
 125871208.548 6  97899828.031 5  23613105.756                    23613112.909
        36.000          31.000
 118574014.807 8  92395338.09046  22563890.025    22563889.220    22563891.139
        49.000          36.0004
 125544260.961 7  97826704.08044  23890272.692    23890272.652    23890278.339
        42.000          26.0004
 13  2  4  9 12 30.0000000  0 16G01R06G03G14G32R19G22R20G23G20R04G11
                                R05R14G19G31
 108875537.834 8  84838087.69247  20718328.505    20718327.745    20718333.588
        49.000          42.0004
 123599314.096 6  96132814.714 6  23162445.122    23162444.258    23162447.840
        39.000          36.000
 129947909.335 6 101258105.58843  24728271.566    24728272.121    24728278.754
        41.000          21.0004
 120598453.931 7  93972820.89544  22949125.583    22949125.575    22949128.752
        44.000          27.0004
 108960283.990 8  84904120.83646  20734453.291    20734452.997    20734456.341
        50.000          40.0004
 107132768.078 8  83325481.310 7  20027337.856    20027336.727    20027336.836
        49.000          45.000
 129927152.520 6 101241935.60042  24724318.842    24724318.423    24724321.206
        41.000          15.0004
 107003851.678 7  83225221.281 7  20010254.102    20010254.021    20010256.397
        43.000          46.000
 128283296.817 6  99961030.24143  24411490.884    24411488.985    24411494.998
        40.000          21.0004
 114939310.123 7  89563104.84545  21872223.654    21872222.717    21872225.718
        46.000          32.0004
 111268817.001 7  86542409.306 7  20778665.451    20778665.017    20778664.458
        47.000          44.000
 106184507.896 8  82741179.33746  20206243.161    20206242.668    20206244.332
        49.000          41.0004
 106332959.622 8  82703410.217 7  19891772.931    19891772.371    19891774.188
        49.000          46.000
 125757850.334 6  97811660.657 5  23591838.580                    23591847.583
        36.000          31.000
 118634724.576 8  92442644.33246  22575442.694    22575441.580    22575443.683
        48.000          36.0004
 125436220.104 7  97742516.52644  23869713.822    23869713.379    23869719.003
        43.000          26.0004
 13  2  4  9 13  0.0000000  0 16G01R06G03G14G32R19G22R20G23G20R04G11
                                R05R14G19G31
 108796166.519 8  84776239.91647  20703224.692    20703224.114    20703229.820
        51.000          42.0004
 123476259.604 6  96037105.690 6  23139384.068    23139383.264    23139386.744
        39.000          36.000
 130026678.396 7 101319483.87643  24743261.530    24743262.124    24743267.396
        43.000          21.0004
 120644834.974 7  94008961.91444  22957952.028    22957951.675    22957954.805
        44.000          27.0004
 108916346.496 8  84869883.82046  20726092.451    20726091.748    20726095.261
        49.000          40.0004
 107178499.499 8  83361050.146 7  20035886.257    20035885.995    20035885.625
        49.000          44.000
 129977615.516 6 101281257.29342  24733922.323    24733921.714    24733924.405
        41.000          17.0004
 106919682.970 7  83159756.729 7  19994513.863    19994513.601    19994515.952
        43.000          45.000
 128143305.182 6  99851946.05243  24384850.966    24384847.976    24384855.238
        39.000          18.0004
 114843877.095 7  89488741.45945  21854062.908    21854062.100    21854065.515
        46.000          33.0004
 111310322.636 7  86574691.437 7  20786415.647    20786416.525    20786415.384
        47.000          43.000
 106153338.381 8  82716891.39546  20200311.718    20200311.408    20200312.791
        49.000          41.0004
 106281628.835 8  82663486.290 7  19882170.727    19882169.868    19882172.052
        49.000          46.000
 125644876.900 6  97723792.590 5  23570645.173                    23570654.359
        36.000          31.000
 118695669.163 8  92490133.56046  22587040.215    22587038.666    22587041.110
        48.000          36.0004
 125328361.066 7  97658470.69844  23849189.021    23849187.701    23849194.006
        42.000          26.0004
 13  2  4  9 13 30.0000000  0 16G01R06G03G14G32R19G22R20G23G20R04G11
                                R05R14G19G31
 108717070.174 8  84714606.40547  20688173.336    20688172.752    20688178.338
        52.000          42.0004
 123353403.712 6  95941551.171 6  23116361.270    23116360.041    23116364.814
        40.000          36.000
 130105356.644 7 101380791.39743  24758233.709    24758234.288    24758239.694
        42.000          20.0004
 120691517.470 7  94045337.82144  22966836.131    22966835.214    22966838.201
        44.000          27.0004
 108872695.306 8  84835869.89946  20717785.971    20717785.441    20717788.494
        52.000          40.0004
 107224844.453 8  83397096.175 7  20044550.440    20044549.931    20044549.889
        49.000          45.000
 130028036.338 7 101320546.15042  24743517.497    24743518.330    24743519.467
        42.000          17.0004
 106836195.390 7  83094821.943 7  19978901.543    19978901.509    19978903.352
        43.000          45.000
 128003371.906 6  99742907.29643  24358223.260    24358218.962    24358226.687
        39.000          19.0004
 114748633.790 7  89414525.90745  21835938.814    21835938.635    21835941.485
        47.000          33.0004
 111351973.729 8  86607086.696 7  20794194.545    20794194.284    20794193.190
        48.000          43.000
 106122640.216 8  82692970.72946  20194469.734    20194469.923    20194471.364
        50.000          41.0004
 106230688.114 8  82623865.731 7  19872640.643    19872640.628    19872642.288
        50.000          46.000
 125532291.041 5  97636225.930 5  23549523.950                    23549535.143
        35.000          32.000
 118756844.763 8  92537802.80345  22598681.616    22598679.996    22598682.034
        48.000          35.0004
 125220685.676 7  97574567.98144  23828698.804    23828697.481    23828704.012
        44.000          26.0004
 13  2  4  9 14  0.0000000  0 15G01R06G03G14G32R19R20G23G20R04G11R05
                                R14G19G31
 108638252.714 8  84653190.19847  20673174.765    20673174.166    20673179.815
        51.000          42.0004
 123230748.914 6  95846153.016 6  23093375.487    23093375.800    23093378.990
        41.000          36.000
 130183943.770 6 101442027.90443  24773188.453    24773190.479    24773194.479
        41.000          20.0004
 120738501.133 7  94081948.40144  22975777.114    22975776.326    22975778.888
        43.000          27.0004
 108829331.937 8  84802080.26646  20709534.294    20709533.731    20709536.707
        50.000          40.0004
 107271802.363 8  83433618.954 7  20053328.798    20053328.204    20053328.020
        49.000          44.000
 106753394.036 7  83030420.893 7  19963417.619    19963417.092    19963418.994
        43.000          45.000
 127863501.445 6  99633917.52143  24331607.389    24331604.269    24331609.834
        40.000          19.0004
 114653582.667 7  89340460.11945  21817851.111    21817850.492    21817853.877
        46.000          33.0004
 111393770.231 8  86639595.044 7  20801999.502    20801999.558    20801998.549
        48.000          42.000
 106092416.143 8  82669419.49246  20188718.717    20188718.438    20188719.779
        49.000          41.0004
 106180138.343 8  82584549.258 7  19863184.054    19863184.247    19863185.991
        50.000          46.000
 125420099.257 5  97548965.751 5  23528478.045                    23528487.688
        35.000          32.000
 118818250.844 8  92585651.63745  22610366.523    22610365.206    22610367.396
        48.000          35.0004
 125113199.084 7  97490812.42744  23808244.426    23808244.350    23808249.414
        44.000          27.0004
 13  2  4  9 14 30.0000000  0 15G01R06G03G14G32R19R20G23G20R04G11R05
                                R14G19G31
 108559717.952 8  84591994.28147  20658230.272    20658229.534    20658234.978
        51.000          42.0004
 123108298.122 6  95750913.620 5  23070428.571    23070428.518    23070431.357
        41.000          35.000
 130262439.623 7 101503193.30043  24788125.238    24788126.861    24788130.757
        42.000          20.0004
 120785785.528 7  94118793.29744  22984774.492    22984773.825    22984776.935
        44.000          27.0004
 108786257.450 8  84768515.72246  20701337.666    20701336.903    20701340.055
        51.000          40.0004
 107319372.748 8  83470618.093 7  20062221.718    20062220.882    20062220.884
        49.000          45.000
 106671283.851 7  82966557.393 7  19948063.013    19948062.255    19948064.110
        44.000          45.000
 127723697.673 7  99524979.68443  24305004.181    24305001.829    24305006.506
        42.000          21.0004
 114558726.181 7  89266545.98045  21799800.655    21799799.629    21799803.198
        47.000          34.0004
 111435711.964 7  86672216.348 7  20809831.851    20809831.772    20809830.643
        47.000          42.000
 106062668.499 8  82646239.48946  20183057.557    20183057.476    20183058.869
        49.000          41.0004
 106129980.468 8  82545537.569 7  19853801.189    19853801.357    19853802.654
        49.000          45.000
 125308307.990 6  97462017.130 5  23507505.740                    23507513.628
        37.000          31.000
 118879887.212 8  92633679.91345  22622095.203    22622094.635    22622096.555
        48.000          35.0004
 125005906.734 7  97407208.24844  23787827.630    23787827.505    23787831.631
        43.000          27.0004
 13  2  4  9 15  0.0000000  0 15G01R06G03G14G32R19R20G23G20R04G11R05
                                R14G19G31
 108481469.245 8  84531021.26347  20643339.957    20643339.407    20643344.835
        51.000          43.0004
 122986053.103 7  95655834.218 5  23047519.968    23047519.505    23047522.092
        42.000          35.000
 130340842.650 6 101564286.35043  24803046.648    24803044.746    24803052.350
        41.000          20.0004
 120833369.807 7  94155871.87644  22993829.254    22993828.983    22993832.179
        44.000          27.0004
 108743472.726 8  84735176.97946  20693195.762    20693195.011    20693198.392
        51.000          40.0004
 107367554.055 8  83508092.390 7  20071228.754    20071228.316    20071228.263
        49.000          45.000
 106589868.982 7  82903234.721 7  19932837.067    19932837.167    19932838.996
        43.000          45.000
 127583964.466 7  99416096.80443  24278413.944    24278413.100    24278415.756
        43.000          22.0004
 114464066.013 8  89192784.81345  21781787.954    21781787.053    21781789.828
        48.000          34.0004
 111477798.577 8  86704950.314 7  20817691.358    20817691.656    20817689.960
        49.000          42.000
 106033399.316 8  82623432.31146  20177488.375    20177487.591    20177489.013
        50.000          41.0004
 106080215.022 8  82506831.114 7  19844492.077    19844491.629    19844492.716
        49.000          46.000
 125196922.924 6  97375384.445 5  23486609.803                    23486617.551
        38.000          31.000
 118941752.433 7  92681886.52245  22633868.108    22633866.822    22633869.334
        47.000          35.0004
 124898813.147 7  97323758.92244  23767447.635    23767448.216    23767452.665
        44.000          27.0004
 13  2  4  9 15 30.0000000  0 15G01R06G03G14G32R19R20G23G20R04G11R05
                                R14G19G31
 108403507.344 8  84470271.73647  20628504.240    20628503.776    20628509.079
        51.000          42.0004
 122864014.035 7  95560915.008 5  23024650.537    23024650.528    23024652.866
        43.000          35.000
 130419149.874 6 101625304.75243  24817947.726    24817946.493    24817953.266
        40.000          20.0004
 120881250.563 7  94193181.47844  23002940.599    23002940.257    23002943.376
        43.000          27.0004
 108700975.947 8  84702062.60846  20685108.852    20685108.128    20685111.335
        51.000          40.0004
 107416342.773 8  83546039.131 7  20080348.929    20080348.265    20080348.651
        49.000          45.000
 106509151.458 7  82840454.419 7  19917743.593    19917742.573    19917744.481
        43.000          45.000
 127444302.801 7  99307269.67743  24251837.995    24251836.738    24251839.917
        45.000          23.0004
 114369601.379 8  89119176.00845  21763811.486    21763811.170    21763814.099
        48.000          35.0004
 111520026.815 7  86737794.447 7  20825577.012    20825577.415    20825575.932
        47.000          42.000
 106004608.222 8  82600997.66946  20172009.063    20172008.945    20172010.415
        49.000          41.0004
 106030839.909 8  82468428.251 7  19835255.290    19835254.812    19835256.226
        50.000          45.000
 125085947.574 6  97289070.396 5  23465790.501                    23465798.922
        38.000          31.000
 119003843.262 7  92730268.92645  22645683.785    22645682.597    22645684.800
        47.000          35.0004
 124791920.881 7  97240466.48244  23747106.787    23747107.857    23747111.308
        45.000          27.0004
 13  2  4  9 16  0.0000000  0 15G01R06G03G14G32R19R20G23G20R04G11R05
                                R14G19G31
 108325835.195 8  84409747.98347  20613723.673    20613723.209    20613728.655
        51.000          43.0004
 122742181.656 7  95466156.520 6  23001819.776    23001819.583    23001821.293
        42.000          36.000
 130497360.344 6 101686247.73143  24832830.454    24832828.590    24832836.664
        40.000          19.0004
 120929426.180 7  94230720.85544  23012108.509    23012107.337    23012111.477
        43.000          27.0004
 108658767.399 8  84669172.83346  20677077.125    20677076.325    20677079.296
        51.000          39.0004
 107465737.045 8  83584456.841 7  20089583.521    20089582.536    20089582.328
        49.000          45.000
 106429134.934 7  82778219.352 7  19902779.731    19902778.852    19902781.453
        42.000          45.000
 127304715.817 7  99198500.73044  24225274.344    24225274.317    24225276.005
        45.000          24.0004
 114275333.641 7  89045720.62545  21745873.129    21745872.058    21745875.635
        47.000          34.0004
 111562395.700 7  86770747.974 7  20833488.713    20833489.350    20833488.067
        47.000          42.000
 105976296.887 8  82578936.87746  20166621.755    20166621.479    20166623.173
        49.000          40.0004
 105981855.146 8  82430328.998 7  19826092.057    19826091.746    19826092.677
        50.000          45.000
 124975387.192 6  97203079.068 5  23445052.225                    23445057.355
        38.000          31.000
 119066158.021 8  92778825.82245  22657541.967    22657540.381    22657542.954
        48.000          35.0004
 124685233.980 7  97157334.06744  23726804.756    23726804.944    23726808.730
        45.000          27.0004
 13  2  4  9 16 30.0000000  0 15G01R06G03G14G32R19R20G23G20R04G11R05
                                R14G19G31
 108248457.502 8  84349453.68347  20598999.443    20598998.997    20599004.135
        53.000          43.0004
 122620560.597 7  95371562.399 5  22979026.769    22979026.851    22979029.008
        42.000          35.000
 130575474.184 6 101747115.44543  24847695.336    24847695.305    24847702.072
        40.000          19.0004
 120977897.595 7  94268490.71544  23021331.829    23021331.477    23021335.284
        44.000          27.0004
 108616849.242 8  84636509.33746  20669100.224    20669099.457    20669102.718
        52.000          40.0004
 107515736.752 8  83623345.459 7  20098930.243    20098930.196    20098929.480
        50.000          45.000
 106349825.373 7  82716534.129 7  19887948.235    19887947.931    19887949.763
        43.000          45.000
 127165208.683 7  99089794.00344  24198727.548    24198727.059    24198728.081
        45.000          24.0004
 114181265.988 8  88972421.16445  21727972.428    21727971.912    21727975.042
        48.000          35.0004
 111604906.182 7  86803811.632 7  20841427.786    20841428.059    20841426.918
        47.000          42.000
 105948468.612 8  82557252.48846  20161326.379    20161325.921    20161327.586
        49.000          41.0004
 105933262.672 8  82392534.842 7  19817001.184    19817000.887    19817002.478
        49.000          45.000
 124865249.162 6  97117416.192 5  23424390.034                    23424397.485
        36.000          31.000
 119128697.317 8  92827557.67745  22669442.408    22669441.340    22669443.912
        48.000          35.0004
 124578758.801 7  97074366.59644  23706544.008    23706543.415    23706547.142
        44.000          27.0004
 13  2  4  9 17  0.0000000  0 15G01R06G03G14G32R19R20G23G20R04G11R05
                                R14G19G31
 108171378.879 8  84289392.41847  20584331.802    20584331.065    20584336.480
        52.000          42.0004
 122499153.196 6  95277134.422 6  22956274.323    22956274.449    22956278.472
        40.000          36.000
 130653491.924 6 101807908.27343  24862542.086    24862540.977    24862548.197
        40.000          19.0004
 121026664.855 7  94306491.09244  23030612.409    23030611.038    23030615.503
        42.000          26.0004
 108575223.465 8  84604073.67246  20661178.721    20661178.222    20661181.467
        52.000          40.0004
 107566342.110 8  83662705.132 7  20108390.040    20108388.672    20108389.364
        48.000          44.000
 106271228.160 7  82655402.954 7  19873250.279    19873250.094    19873251.787
        43.000          46.000
 127025786.411 7  98981153.37244  24172195.789    24172196.101    24172196.475
        45.000          24.0004
 114087401.712 8  88899280.17345  21710110.520    21710110.300    21710112.867
        48.000          34.0004
 111647558.925 7  86836985.934 7  20849393.301    20849393.228    20849391.690
        47.000          43.000
 105921126.800 8  82535947.16246  20156123.258    20156122.951    20156124.742
        49.000          41.0004
 105885063.951 8  82355046.953 7  19807984.754    19807984.501    19807985.877
        49.000          45.000
 124755539.932 6  97032086.867 5  23403807.453                    23403817.735
        37.000          32.000
 119191461.324 8  92876464.62945  22681386.298    22681385.085    22681387.407
        49.000          34.0004
 124472500.990 7  96991568.50144  23686322.485    23686323.514    23686326.617
        46.000          27.0004
 13  2  4  9 17 30.0000000  0 15G01R06G03G14G32R19R20G23G20R04G11R05
                                R14G19G31
 108094602.275 8  84229566.49647  20569721.273    20569720.965    20569726.302
        52.000          42.0004
 122377961.967 6  95182874.578 5  22933563.798    22933564.151    22933567.102
        41.000          35.000
 130731412.548 7 101868625.40843  24877369.760    24877370.275    24877375.906
        42.000          20.0004
 121075726.779 7  94344721.08844  23039948.325    23039947.860    23039951.611
        43.000          25.0004
 108533890.580 8  84571866.22946  20653313.832    20653312.820    20653316.402
        52.000          40.0004
 107617551.390 8  83702534.530 7  20117963.363    20117962.030    20117962.475
        48.000          44.000
 106193347.236 7  82594828.907 7  19858687.076    19858685.960    19858687.825
        43.000          45.000
 126886452.306 7  98872581.48944  24145680.861    24145682.472    24145681.787
        45.000          24.0004
 113993742.014 7  88826298.58845  21692287.669    21692286.781    21692290.143
        47.000          34.0004
 111690353.042 7  86870270.203 7  20857384.676    20857384.718    20857383.668
        47.000          43.000
 105894273.254 8  82515022.30546  20151013.395    20151012.635    20151014.586
        48.000          40.0004
 105837259.194 8  82317865.470 7  19799042.014    19799041.680    19799043.131
        50.000          45.000
 124646265.624 6  96947095.825 5  23383306.588                    23383317.468
        37.000          32.000
 119254448.686 7  92925545.61945  22693372.512    22693371.448    22693373.575
        46.000          34.0004
 124366465.219 7  96908943.40444  23666144.714    23666145.609    23666148.580
        44.000          28.0004
 13  2  4  9 18  0.0000000  0 15G01R06G03G14G32R19R20G23G20R04G11R05
                                R14G19G31
 108018130.280 8  84169977.92947  20555169.546    20555168.812    20555174.388
        51.000          43.0004
 122256987.859 7  95088783.570 6  22910893.061    22910893.920    22910896.156
        42.000          36.000
 130809234.399 6 101929265.57543  24892178.760    24892179.508    24892186.351
        41.000          20.0004
 121125081.532 7  94383179.26144  23049340.378    23049339.822    23049343.890
        42.000          25.0004
 108492850.359 8  84539886.84746  20645503.975    20645502.987    20645506.662
        50.000          40.0004
 107669362.341 8  83742831.890 7  20127648.606    20127647.964    20127648.185
        48.000          44.000
 106116186.060 7  82534814.660 7  19844257.091    19844256.229    19844258.352
        43.000          46.000
 126747209.237 7  98764080.50044  24119183.955    24119185.915    24119184.983
        46.000          24.0004
 113900287.994 7  88753477.28345  21674504.316    21674502.682    21674506.271
        47.000          34.0004
 111733287.168 7  86903663.380 7  20865402.345    20865402.224    20865401.654
        46.000          43.000
 105867908.800 8  82494478.55746  20145996.306    20145995.416    20145997.564
        48.000          40.0004
 105789847.828 8  82280989.965 7  19790172.397    19790172.101    19790174.044
        50.000          45.000
 124537430.973 6  96862446.735 5  23362891.106                    23362899.403
        37.000          32.000
 119317657.670 7  92974799.31445  22705400.819    22705399.598    22705402.000
        47.000          34.0004
 124260655.586 7  96826494.50844  23646009.641    23646010.717    23646013.294
        46.000          27.0004
 13  2  4  9 18 30.0000000  0 15G01R06G03G14G32R19R20G23G20R04G11R05
                                R14G19G31
 107941963.452 8  84110627.16047  20540675.544    20540675.100    20540680.212
        51.000          43.0004
 122136230.430 7  94994861.143 6  22888264.688    22888264.115    22888266.383
        42.000          36.000
 130886953.728 7 101989825.87943  24906969.303    24906970.057    24906974.516
        42.000          20.0004
 121174725.693 7  94421862.94244  23058787.607    23058786.391    23058790.710
        43.000          25.0004
 108452100.912 8  84508134.03046  20637749.646    20637749.053    20637752.090
        51.000          40.0004
 107721770.501 8  83783593.737 7  20137446.636    20137445.846    20137445.034
        49.000          44.000
 106039745.992 7  82475361.271 7  19829961.789    19829961.696    19829963.608
        43.000          45.000
 126608058.261 7  98655651.28743  24092703.451    24092705.556    24092706.400
        45.000          23.0004
 113807038.699 7  88680815.49445  21656759.320    21656758.900    21656761.382
        47.000          34.0004
 111776358.205 8  86937163.033 7  20873445.705    20873446.157    20873445.006
        48.000          44.000
 105842032.889 8  82474315.48146  20141072.288    20141071.847    20141073.363
        48.000          41.0004
 105742827.549 8  82244418.634 7  19781376.528    19781376.331    19781378.169
        48.000          45.000
 124429038.957 6  96778141.943 5  23342557.681                    23342565.138
        37.000          32.000
 119381084.258 7  93024222.56645  22717470.673    22717469.079    22717471.617
        45.000          34.0004
 124155073.881 7  96744223.19944  23625917.853    23625918.650    23625921.596
        44.000          27.0004
 13  2  4  9 19  0.0000000  0 15G01R06G03G14G32R19R20G23G20R04G11R05
                                R14G19G31
 107866104.841 9  84051516.55147  20526240.230    20526239.586    20526244.769
        54.000          44.0004
 122015691.233 7  94901108.414 6  22865674.055    22865674.390    22865677.856
        42.000          36.000
 130964569.569 6 102050305.55643  24921738.717    24921739.201    24921744.895
        40.000          20.0004
 121224658.091 7  94460771.22544  23068289.548    23068288.533    23068293.432
        42.000          25.0004
 108411642.750 8  84476608.19546  20630050.743    20630050.372    20630052.982
        51.000          40.0004
 107774774.466 8  83824818.981 7  20147354.927    20147354.057    20147353.483
        49.000          44.000
 105964030.885 7  82416471.738 7  19815802.091    19815802.944    19815804.725
        43.000          46.000
 126469002.446 7  98547296.21643  24066240.959    24066242.185    24066244.681
        43.000          23.0004
 113713995.705 8  88608314.46845  21639053.736    21639053.621    21639056.163
        48.000          34.0004
 111819565.444 7  86970768.612 7  20881514.296    20881514.308    20881513.745
        47.000          43.000
 105816647.247 8  82454534.44946  20136241.849    20136241.226    20136242.901
        50.000          41.0004
 105696198.841 8  82208151.863 7  19772653.467    19772653.227    19772655.087
        49.000          46.000
 124321095.026 6  96694185.653 5  23322308.295                    23322314.870
        37.000          32.000
 119444727.204 7  93073814.40045  22729581.215    22729580.480    22729583.063
        47.000          34.0004
 124049724.702 7  96662133.04344  23605870.493    23605870.702    23605874.555
        45.000          27.0004
 13  2  4  9 19 30.0000000  0 15G01R06G03G14G32R19R20G23G20R04G11R05
                                R14G19G31
 107790557.261 8  83992648.31047  20511863.797    20511863.426    20511868.600
        52.000          43.0004
 121895371.783 7  94807526.603 6  22843126.833    22843126.718    22843128.507
        43.000          36.000
 131042080.582 7 102110703.53043  24936488.893    24936489.199    24936496.745
        43.000          20.0004
 121274877.000 7  94499902.76144  23077845.479    23077844.816    23077849.289
        42.000          25.0004
 108371475.969 8  84445309.40746  20622407.025    20622406.434    20622409.678
        51.000          40.0004
 107828372.091 8  83866505.972 7  20157374.054    20157372.851    20157373.467
        48.000          44.000
 105889044.342 7  82358148.880 7  19801780.441    19801779.961    19801781.667
        43.000          46.000
 126330044.595 7  98439017.47643  24039798.096    24039798.248    24039802.670
        42.000          23.0004
 113621160.140 7  88535975.07045  21621387.870    21621386.940    21621390.083
        46.000          34.0004
 111862907.801 7  87004479.281 7  20889608.046    20889608.158    20889607.535
        47.000          43.000
 105791753.155 8  82435136.43846  20131504.599    20131503.971    20131505.863
        48.000          41.0004
 105649961.067 8  82172189.154 7  19764003.867    19764003.647    19764005.168
        49.000          45.000
 124213604.278 6  96610581.860 5  23302141.399                    23302150.378
        36.000          32.000
 119508584.870 8  93123573.55145  22741733.480    22741732.426    22741735.013
        48.000          34.0004
 123944612.005 7  96580227.14144  23585867.748    23585868.922    23585871.173
        42.000          27.0004
 13  2  4  9 20  0.0000000  0 14G01R06G14G32R19R20G23G20R04G11R05R14
                                G19G31
 107715325.841 8  83934026.41947  20497547.963    20497547.530    20497552.368
        51.000          43.0004
 121775275.742 7  94714118.568 6  22820621.289    22820620.513    22820622.658
        42.000          36.000
 121325383.738 7  94539258.59044  23087456.969    23087456.683    23087460.313
        43.000          26.0004
 108331603.237 8  84414239.74646  20614819.643    20614818.940    20614822.300
        49.000          40.0004
 107882563.737 8  83908654.978 7  20167504.657    20167503.651    20167504.078
        48.000          44.000
 105814792.323 7  82300397.297 7  19787894.517    19787893.991    19787895.895
        43.000          46.000
 126191190.805 7  98330819.81243  24013375.153    24013374.772    24013380.733
        42.000          23.0004
 113528535.785 8  88463800.25645  21603761.667    21603761.588    21603764.022
        48.000          34.0004
 111906386.478 7  87038295.963 7  20897726.501    20897727.546    20897726.620
        47.000          43.000
 105767354.249 8  82416124.29146  20126861.661    20126861.000    20126862.817
        49.000          41.0004
 105604116.661 8  82136532.389 7  19755427.801    19755427.149    19755428.707
        49.000          45.000
 124106574.616 6  96527336.696 5  23282062.807                    23282071.076
        36.000          32.000
 119572658.458 7  93173500.94845  22753926.734    22753925.111    22753927.921
        47.000          34.0004
 123839742.446 7  96498510.67544  23565911.756    23565911.361    23565915.135
        44.000          27.0004
 13  2  4  9 20 30.0000000  0 14G01R06G14G32R19R20G23G20R04G11R05R14
                                G19G31
 107640411.585 8  83875651.66947  20483292.199    20483291.489    20483296.810
        52.000          43.0004
 121655403.466 6  94620884.554 6  22798155.511    22798156.167    22798158.963
        41.000          36.000
 121376174.813 7  94578835.97944  23097122.477    23097121.763    23097125.205
        44.000          26.0004
 108292022.813 8  84383397.85046  20607287.794    20607287.180    20607290.452
        52.000          40.0004
 107937345.600 8  83951263.055 7  20177745.691    20177745.004    20177745.186
        49.000          44.000
 105741276.311 7  82243218.174 7  19774146.979    19774146.372    19774147.867
        44.000          45.000
 126052442.176 7  98222704.09644  23986971.978    23986971.835    23986977.335
        44.000          24.0004
 113436121.806 8  88391789.38845  21586175.812    21586175.595    21586178.272
        48.000          34.0004
 111949998.860 7  87072216.647 7  20905871.690    20905871.993    20905870.658
        46.000          42.000
 105743450.341 8  82397497.85446  20122312.877    20122312.150    20122314.098
        49.000          41.0004
 105558663.491 8  82101179.929 7  19746924.543    19746924.365    19746926.165
        49.000          45.000
 124000009.178 6  96444452.583 5  23262071.047                    23262079.053
        38.000          31.000
 119636944.044 7  93223593.53945  22766159.518    22766158.093    22766160.752
        47.000          34.0004
 123735118.940 7  96416985.92944  23546002.549    23546003.012    23546006.463
        45.000          27.0004
 13  2  4  9 21  0.0000000  0 14G01R06G14G32R19R20G23G20R04G11R05R14
                                G19G31
 107565814.931 8  83817524.40847  20469096.829    20469096.066    20469101.505
        51.000          43.0004
 121535753.620 6  94527823.552 6  22775734.375    22775733.689    22775737.191
        40.000          36.000
 121427246.468 7  94618631.99244  23106841.368    23106840.345    23106843.943
        43.000          27.0004
 108252732.619 8  84352782.11646  20599811.120    20599810.420    20599813.624
        51.000          40.0004
 107992713.240 8  83994326.730 7  20188095.921    20188095.029    20188095.774
        49.000          44.000
 105668497.508 7  82186612.426 7  19760536.499    19760536.356    19760538.244
        44.000          46.000
 125913799.315 7  98114670.81144  23960589.306    23960588.762    23960593.843
        42.000          24.0004
 113343917.585 7  88319941.96645  21568630.171    21568629.412    21568632.766
        47.000          34.0004
 111993741.653 7  87106238.768 6  20914040.210    20914040.391    20914039.610
        47.000          41.000
 105720040.323 8  82379256.26546  20117857.881    20117857.236    20117859.158
        48.000          41.0004
 105513598.906 8  82066129.697 7  19738494.459    19738494.276    19738495.588
        50.000          45.000
 123893910.586 6  96361931.606 5  23242167.698                    23242174.913
        39.000          32.000
 119701438.014 8  93273848.51045  22778432.319    22778431.089    22778433.398
        48.000          34.0004
 123630742.797 7  96335653.93144  23526140.676    23526140.950    23526144.180
        44.000          28.0004
 13  2  4  9 21 30.0000000  0 14G01R06G14G32R19R20G23G20R04G11R05R14
                                G19G31
 107491535.549 8  83759644.36647  20454961.649    20454961.308    20454966.655
        52.000          43.0004
 121416324.527 6  94434934.290 5  22753352.505    22753352.950    22753354.617
        41.000          35.000
 121478594.231 7  94658643.17244  23116612.190    23116611.846    23116615.004
        45.000          26.0004
 108213729.806 8  84322390.32046  20592389.129    20592388.564    20592391.494
        51.000          40.0004
 108048660.990 8  84037841.607 7  20198554.473    20198553.759    20198554.410
        48.000          44.000
 105596456.303 7  82130580.381 7  19747064.604    19747064.352    19747066.404
        44.000          45.000
 125775262.169 7  98006719.87944  23934227.432    23934225.320    23934231.679
        43.000          24.0004
 113251921.059 8  88248256.38945  21551123.837    21551122.706    21551126.421
        49.000          34.0004
 112037610.605 7  87140359.033 6  20922232.484    20922232.694    20922231.713
        47.000          41.000
 105697122.287 8  82361398.03946  20113496.862    20113496.363    20113497.994
        49.000          41.0004
 105468919.727 8  82031379.224 7  19730136.263    19730135.735    19730137.783
        50.000          46.000
 123788281.011 6  96279775.393 5  23222352.224                    23222359.986
        38.000          32.000
 119766135.689 7  93324262.20645  22790744.117    22790742.571    22790745.131
        47.000          34.0004
 123526615.021 7  96254515.46144  23506325.631    23506326.169    23506329.690
        46.000          28.0004
 13  2  4  9 22  0.0000000  0 14G01R06G14G32R19R20G23G20R04G11R05R14
                                G19G31
 107417581.127 8  83702017.53647  20440888.897    20440888.744    20440893.432
        50.000          43.0004
 121297122.699 7  94342221.773 6  22731015.043    22731014.748    22731016.850
        43.000          36.000
 121530221.594 7  94698872.24344  23126436.697    23126436.415    23126439.221
        45.000          26.0004
 108175019.261 8  84292226.26846  20585022.635    20585022.020    20585025.030
        51.000          40.0004
 108105192.158 8  84081810.238 7  20209122.634    20209122.814    20209122.300
        49.000          44.000
 105525160.908 7  82075128.393 7  19733731.850    19733731.666    19733733.663
        43.000          45.000
 125636838.955 7  97898857.74044  23907886.442    23907884.479    23907890.072
        42.000          24.0004
 113160138.117 7  88176737.23145  21533657.906    21533657.491    21533660.439
        47.000          34.0004
 112081609.932 7  87174580.692 6  20930449.229    20930449.427    20930448.345
        47.000          41.000
 105674702.623 8  82343928.15846  20109230.653    20109230.219    20109231.690
        49.000          41.0004
 105424630.941 8  81996932.398 7  19721851.132    19721850.751    19721852.424
        49.000          45.000
 123683130.400 6  96197991.728 5  23202627.096                    23202633.021
        38.000          32.000
 119831040.215 7  93374837.09745  22803094.747    22803093.403    22803096.226
        47.000          33.0004
 123422744.853 7  96173577.72544  23486560.279    23486560.425    23486563.518
        45.000          28.0004
 13  2  4  9 22 30.0000000  0 14G01R06G14G32R19R20G23G20R04G11R05R14
                                G19G31
 107343953.194 8  83644645.11447  20426878.055    20426877.531    20426882.746
        52.000          43.0004
 121178148.804 7  94249686.580 6  22708719.241    22708719.486    22708721.733
        43.000          36.000
 121582125.443 7  94739316.73144  23136313.530    23136312.825    23136316.495
        43.000          26.0004
 108136600.075 8  84262289.23746  20577711.643    20577710.793    20577714.048
        51.000          39.0004
 108162302.997 8  84126229.717 7  20219799.739    20219798.423    20219798.295
        49.000          44.000
 105454613.355 7  82020258.073 7  19720539.546    19720538.914    19720540.527
        44.000          45.000
 125498531.434 7  97791085.75444  23881568.061    23881566.144    23881570.896
        44.000          24.0004
 113068568.847 7  88105384.57545  21516232.986    21516232.541    21516235.735
        47.000          35.0004
 112125737.169 7  87208901.838 6  20938689.398    20938689.407    20938688.637
        46.000          41.000
 105652781.304 8  82326846.58446  20105059.427    20105059.157    20105059.962
        50.000          41.0004
 105380730.482 8  81962787.592 7  19713639.052    19713638.805    19713639.841
        50.000          45.000
 123578462.315 6  96116583.310 5  23182990.479                    23182998.171
        38.000          32.000
 119896148.812 7  93425570.99445  22815484.083    22815483.260    22815486.321
        47.000          33.0004
 123319135.260 7  96092843.03644  23466844.149    23466843.863    23466847.088
        46.000          28.0004
 13  2  4  9 23  0.0000000  0 14G01R06G14G32R19R20G23G20R04G11R05R14
                                G19G31
 107270656.185 8  83587530.56247  20412930.104    20412929.383    20412934.922
        52.000          43.0004
 121059405.119 7  94157330.488 6  22686467.771    22686468.116    22686469.554
        44.000          36.000
 121634306.160 7  94779976.97344  23146243.724    23146243.063    23146246.213
        44.000          26.0004
 108098474.157 8  84232580.72946  20570456.503    20570455.706    20570459.213
        51.000          39.0004
 108219993.317 8  84171099.915 7  20230583.743    20230583.480    20230583.247
        49.000          44.000
 105384818.881 7  81965973.466 7  19707487.181    19707487.126    19707489.084
        44.000          45.000
 125360344.274 7  97683407.55744  23855272.211    23855271.124    23855273.360
        46.000          25.0004
 112977216.206 8  88034200.71645  21498849.084    21498848.248    21498851.840
        48.000          35.0004
 112169993.317 7  87243323.248 6  20946954.588    20946954.736    20946952.934
        47.000          41.000
 105631361.400 8  82310155.73146  20100983.121    20100982.874    20100984.000
        50.000          41.0004
 105337220.494 8  81928946.481 7  19705499.514    19705498.849    19705500.496
        50.000          45.000
 123474284.058 6  96035555.841 5  23163445.734                    23163454.914
        37.000          32.000
 119961461.449 7  93476463.87245  22827913.300    22827912.129    22827914.548
        46.000          33.0004
 123215792.072 7  96012315.91744  23447177.925    23447177.642    23447181.698
        44.000          28.0004
 13  2  4  9 23 30.0000000  0 14G01R06G14G32R19R20G23G20R04G11R05R14
                                G19G31
 107197690.993 8  83530674.57347  20399045.053    20399044.591    20399050.151
        52.000          43.0004
 120940891.667 7  94065153.407 6  22664257.850    22664257.818    22664260.050
        43.000          36.000
 121686760.443 7  94820850.38044  23156224.688    23156224.657    23156227.493
        43.000          26.0004
 108060639.579 8  84203099.23646  20563256.934    20563256.447    20563259.403
        51.000          40.0004
 108278258.923 8  84216417.547 7  20241476.265    20241475.161    20241475.805
        49.000          44.000
 105315778.760 7  81912275.580 7  19694575.714    19694575.952    19694578.525
        43.000          46.000
 125222278.669 7  97575824.09444  23828999.352    23828998.552    23828999.790
        45.000          25.0004
 112886079.449 8  87963185.08345  21481506.714    21481505.682    21481508.760
        48.000          35.0004
 112214375.284 8  87277842.524 7  20955242.803    20955243.077    20955241.261
        48.000          42.000
 105610442.059 8  82293854.92846  20097002.696    20097001.823    20097003.673
        50.000          41.0004
 105294098.260 8  81895406.971 7  19697432.692    19697432.742    19697433.568
        51.000          45.000
 123370598.434 6  95954911.568 5  23143995.100                    23144003.747
        37.000          32.000
 120026974.758 7  93527513.13345  22840379.718    22840378.597    22840381.065
        45.000          32.0004
 123112717.535 7  95931998.15144  23427563.422    23427563.770    23427567.027
        46.000          28.0004
 13  2  4  9 24  0.0000000  0 14G01R06G14G32R19R20G23G20R04G11R05R14
                                G19G31
 107125059.081 8  83474078.27847  20385223.754    20385223.281    20385228.590
        51.000          43.0004
 120822608.053 7  93973155.073 6  22642090.788    22642091.187    22642092.952
        42.000          36.000
 121739485.722 7  94861934.93844  23166258.602    23166257.795    23166261.349
        43.000          25.0004
 108023095.357 8  84173843.99446  20556112.513    20556111.915    20556114.958
        51.000          40.0004
 108337096.095 8  84262179.757 7  20252475.027    20252474.699    20252474.578
        48.000          44.000
 105247494.924 7  81859165.929 7  19681806.933    19681807.018    19681808.792
        44.000          45.000
 125084336.577 7  97468336.88244  23802749.329    23802749.235    23802750.038
        43.000          25.0004
 112795158.991 7  87892337.99545  21464204.591    21464203.969    21464207.175
        47.000          35.0004
 112258881.042 8  87312458.069 7  20963553.667    20963554.479    20963552.965
        48.000          42.000
 105590023.141 8  82277944.06746  20093116.857    20093116.428    20093117.988
        48.000          41.0004
 105251362.522 8  81862168.062 7  19689437.652    19689437.521    19689439.430
        50.000          46.000
 123267409.428 6  95874653.493 5  23124637.028                    23124646.124
        37.000          32.000
 120092685.815 7  93578716.48645  22852884.075    22852883.771    22852885.561
        45.000          33.0004
 123009914.561 7  95851892.00544  23408000.524    23408000.240    23408004.402
        43.000          28.0004
 13  2  4  9 24 30.0000000  0 14G01R06G14G32R19R20G23G20R04G11R05R14
                                G19G31
 107052765.140 8  83417745.33747  20371466.595    20371466.180    20371471.226
        51.000          43.0004
 120704558.440 7  93881338.748 6  22619968.112    22619968.759    22619971.197
        43.000          37.000
 121792482.313 7  94903230.91444  23176343.556    23176342.512    23176346.641
        43.000          25.0004
 107985843.536 8  84144816.58946  20549024.007    20549023.197    20549026.171
        50.000          40.0004
 108396504.738 7  84308386.433 7  20263580.766    20263579.816    20263580.832
        47.000          44.000
 105179972.459 7  81806648.453 7  19669179.770    19669179.993    19669181.345
        43.000          45.000
 124946522.739 7  97360949.60144  23776523.706    23776523.837    23776525.167
        45.000          25.0004
 112704457.734 7  87821661.70845  21446944.980    21446944.198    21446947.267
        47.000          35.0004
 112303511.654 7  87347170.749 7  20971888.107    20971888.512    20971887.580
        47.000          42.000
 105570107.904 8  82262425.67946  20089326.950    20089326.657    20089327.835
        48.000          41.0004
 105209014.783 8  81829230.920 7  19681515.884    19681515.924    19681517.188
        50.000          46.000
 123164723.702 6  95794786.866 5  23105372.084                    23105382.363
        36.000          32.000
 120158594.945 7  93630074.16245  22865426.895    22865426.413    22865427.729
        47.000          33.0004
 122907389.050 7  95772002.06744  23388490.763    23388489.877    23388494.023
        44.000          27.0004
 13  2  4  9 25  0.0000000  0 14G01R06G14G32R19R20G23G20R04G11R05R14
                                G19G31
 106980812.590 8  83361678.40847  20357774.459    20357774.266    20357779.169
        51.000          43.0004
 120586744.575 7  93789705.793 6  22597891.025    22597890.697    22597893.782
        44.000          37.000
 121845749.246 7  94944737.55344  23186480.209    23186479.227    23186483.324
        42.000          25.0004
 107948884.956 8  84116017.69446  20541991.205    20541990.307    20541993.128
        50.000          40.0004
 108456482.949 8  84355036.096 7  20274793.611    20274792.875    20274792.996
        48.000          44.000
 105113215.171 7  81754726.093 7  19656696.343    19656695.879    19656697.539
        43.000          45.000
 124808840.976 7  97253665.22744  23750323.423    23750323.680    23750325.522
        46.000          26.0004
 112613977.410 7  87751157.56945  21429726.917    21429725.985    21429729.619
        47.000          35.0004
 112348266.801 7  87381980.290 7  20980245.673    20980245.761    20980245.516
        47.000          43.000
 105550698.534 8  82247301.47346  20085633.280    20085633.222    20085634.584
        50.000          41.0004
 105167055.552 8  81796595.963 7  19673666.946    19673666.769    19673667.447
        51.000          45.000
 123062547.085 6  95715316.244 5  23086205.369                    23086213.625
        38.000          32.000
 120224701.118 8  93681585.38545  22878006.517    22878006.136    22878007.857
        48.000          34.0004
 122805146.044 7  95692332.29244  23369034.634    23369035.176    23369037.211
        46.000          28.0004
 13  2  4  9 25 30.0000000  0 14G01R06G14G32R19R20G23G20R04G11R05R14
                                G19G31
 106909201.531 8  83305877.57947  20344147.458    20344147.054    20344151.963
        52.000          43.0004
 120469164.121 7  93698254.373 6  22575856.134    22575856.129    22575858.652
        44.000          37.000
 121899282.443 7  94986451.64544  23196666.878    23196666.195    23196669.799
        42.000          25.0004
 107912217.104 8  84087445.33646  20535013.138    20535012.417    20535015.634
        51.000          40.0004
 108517025.933 8  84402125.027 7  20286112.381    20286111.969    20286110.575
        49.000          44.000
 105047223.530 7  81703399.275 7  19644355.740    19644355.001    19644356.939
        43.000          45.000
 124671291.958 7  97146484.28644  23724148.180    23724148.534    23724150.720
        44.000          25.0004
 112523716.592 8  87680824.47846  21412551.468    21412550.492    21412553.567
        48.000          36.0004
 112393142.913 7  87416883.896 7  20988625.221    20988626.245    20988625.741
        46.000          42.000
 105531793.019 8  82232569.89346  20082035.896    20082035.885    20082036.941
        49.000          41.0004
 105125481.983 8  81764260.968 7  19665889.346    19665889.242    19665890.533
        50.000          45.000
 122960881.863 6  95636243.376 5  23067133.559                    23067140.021
        38.000          32.000
 120291000.353 7  93733247.04045  22890623.360    22890622.430    22890624.306
        47.000          34.0004
 122703186.927 7  95612883.71544  23349632.128    23349631.677    23349635.593
        44.000          28.0004
 13  2  4  9 26  0.0000000  0 14G01R06G14G32R19R20G23G20R04G11R05R14
                                G19G31
 106837936.155 8  83250346.10547  20330586.059    20330585.641    20330590.660
        52.000          43.0004
 120351820.912 7  93606987.467 6  22553865.324    22553865.400    22553868.616
        43.000          37.000
 121953081.874 6  95028373.20444  23206905.035    23206903.934    23206907.627
        41.000          24.0004
 107875841.597 8  84059100.77746  20528091.043    20528090.445    20528093.949
        51.000          40.0004
 108578132.828 8  84449652.564 7  20297535.006    20297534.043    20297534.087
        48.000          44.000
 104982002.264 7  81652671.600 7  19632159.050    19632158.454    19632160.127
        43.000          45.000
 124533879.803 7  97039409.97344  23697999.143    23697999.764    23698002.280
        43.000          25.0004
 112433678.034 8  87610664.57146  21395417.605    21395417.140    21395419.877
        49.000          36.0004
 112438140.686 7  87451882.109 7  20997028.382    20997028.636    20997028.373
        45.000          42.000
 105513394.100 8  82218233.05546  20078534.868    20078534.500    20078535.878
        49.000          41.0004
 105084295.256 8  81732226.847 7  19658184.714    19658184.806    19658185.679
        50.000          46.000
 122859734.266 6  95557573.112 5  23048158.355                    23048164.911
        38.000          32.000
 120357491.959 7  93785058.61445  22903276.037    22903274.991    22903277.565
        46.000          34.0004
 122601517.237 7  95533660.66044  23330285.244    23330284.437    23330288.429
        44.000          28.0004
 13  2  4  9 26 30.0000000  0 14G01R06G14G32R19R20G23G20R04G11R05R14
                                G19G31
 106767016.421 8  83195083.97347  20317090.596    20317090.209    20317095.244
        53.000          44.0004
 120234713.916 7  93515904.295 6  22531918.898    22531919.110    22531921.742
        42.000          36.000
 122007143.416 6  95070499.02144  23217192.129    23217191.321    23217195.120
        40.000          24.0004
 107839755.785 8  84030981.95146  20521224.135    20521223.485    20521227.121
        50.000          40.0004
 108639798.582 8  84497614.760 7  20309062.009    20309061.365    20309062.144
        48.000          44.000
 104917551.515 7  81602543.224 7  19620105.706    19620105.453    19620107.799
        43.000          45.000
 124396604.757 7  96932442.50644  23671877.056    23671876.954    23671879.693
        44.000          25.0004
 112343860.030 8  87540676.52446  21378325.657    21378325.294    21378327.829
        48.000          36.0004
 112483256.316 7  87486972.001 6  21005454.677    21005454.519    21005453.440
        45.000          41.000
 105495500.429 8  82204289.91546  20075129.832    20075129.304    20075130.740
        48.000          41.0004
 105043491.980 8  81700490.949 7  19650551.584    19650551.373    19650552.647
        50.000          46.000
 122759106.668 6  95479307.267 5  23029277.413                    23029287.892
        37.000          32.000
 120424171.828 7  93837016.87745  22915964.285    22915963.351    22915966.672
        46.000          33.0004
 122500138.338 7  95454664.17744  23310993.863    23310993.194    23310996.351
        45.000          28.0004
 13  2  4  9 27  0.0000000  0 14G01R06G14G32R19R20G23G20R04G11R05R14
                                G19G31
 106696445.197 8  83140093.40147  20303661.346    20303660.785    20303666.087
        51.000          43.0004
 120117843.723 7  93425005.262 6  22510018.341    22510018.258    22510020.771
        42.000          37.000
 122061465.815 6  95112828.07144  23227529.212    23227528.591    23227532.848
        40.000          24.0004
 107803959.919 8  84003089.06146  20514412.615    20514411.392    20514415.094
        50.000          40.0004
 108702020.605 8  84546009.605 7  20320694.286    20320693.579    20320693.501
        49.000          43.000
 104853874.340 7  81553016.535 7  19608198.150    19608197.540    19608199.635
        43.000          46.000
 124259469.838 7  96825584.21644  23645781.010    23645781.325    23645783.414
        46.000          26.0004
 112254264.369 8  87470861.73846  21361276.157    21361275.245    21361278.532
        49.000          37.0004
 112528489.360 7  87522153.216 7  21013900.885    21013900.798    21013900.478
        46.000          42.000
 105478112.828 8  82190741.11446  20071820.969    20071820.351    20071821.788
        50.000          40.0004
 105003072.092 8  81669053.244 7  19642990.017    19642989.916    19642991.296
        50.000          46.000
 122659004.182 6  95401449.858 5  23010500.931                    23010509.770
        37.000          32.000
 120491038.313 7  93889120.55445  22928688.624    22928687.288    22928690.783
        46.000          33.0004
 122399054.467 7  95375897.62544  23291757.711    23291757.902    23291760.768
        46.000          29.0004
 13  2  4  9 27 30.0000000  0 14G01R06G14G32R19R20G23G20R04G11R05R14
                                G19G31
 106626228.088 8  83085378.76347  20290299.425    20290298.997    20290304.621
        52.000          44.0004
 120001215.152 7  93334294.198 6  22488162.526    22488163.090    22488163.872
        42.000          36.000
 122116050.216 6  95155361.30743  23237916.506    23237915.050    23237920.162
        41.000          23.0004
 107768457.178 8  83975424.57846  20507656.446    20507655.575    20507659.057
        50.000          39.0004
 108764799.808 8  84594837.821 7  20332429.730    20332428.920    20332429.373
        49.000          43.000
 104790976.798 7  81504096.219 7  19596436.974    19596435.802    19596437.852
        43.000          46.000
 124122481.576 7  96718840.19844  23619713.697    23619714.072    23619715.334
        47.000          27.0004
 112164894.465 8  87401222.86246  21344269.597    21344268.804    21344272.121
        48.000          36.0004
 112573841.689 7  87557427.196 7  21022369.855    21022369.917    21022369.879
        46.000          42.000
 105461235.584 8  82177590.00246  20068609.200    20068608.650    20068610.167
        48.000          41.0004
 104963038.571 8  81637916.044 7  19635500.945    19635500.622    19635501.887
        50.000          46.000
 122559434.104 6  95324006.514 5  22991822.280                    22991830.870
        37.000          33.000
 120558092.779 7  93941370.71445  22941448.529    22941447.778    22941450.969
        45.000          33.0004
 122298272.340 7  95297366.19644  23272579.451    23272579.404    23272581.955
        45.000          29.0004
 13  2  4  9 28  0.0000000  0 14G01R06G14G32R19R20G23G20R04G11R05R14
                                G19G31
 106556365.324 8  83030940.24647  20277004.911    20277004.585    20277009.875
        51.000          44.0004
 119884826.602 7  93243769.836 6  22466350.966    22466350.903    22466352.892
        42.000          37.000
 122170892.838 6  95198095.70943  23248353.498    23248351.473    23248355.853
        41.000          23.0004
 107733245.066 8  83947986.57046  20500955.830    20500954.798    20500958.354
        51.000          39.0004
 108828131.099 8  84644095.421 7  20344269.476    20344269.013    20344268.412
        49.000          43.000
 104728859.162 7  81455782.481 7  19584819.608    19584819.442    19584821.185
        44.000          45.000
 123985640.053 7  96612210.53244  23593673.101    23593673.297    23593675.766
        45.000          26.0004
 112075749.910 8  87331759.59746  21327305.556    21327305.262    21327308.312
        48.000          36.0004
 112619310.187 7  87592791.534 7  21030861.380    21030861.175    21030860.898
        47.000          42.000
 105444867.109 7  82164835.34046  20065494.223    20065493.822    20065495.676
        47.000          40.0004
 104923388.184 8  81607076.846 7  19628083.467    19628083.275    19628084.997
        50.000          46.000
 122460399.109 6  95246979.360 5  22973243.787                    22973252.705
        38.000          33.000
 120625331.103 7  93993764.13045  22954243.966    22954242.822    22954245.902
        46.000          32.0004
 122197793.779 7  95219071.30044  23253459.106    23253459.065    23253462.327
        45.000          29.0004
 13  2  4  9 28 30.0000000  0 14G01R06G14G32R19R20G23G20R04G11R05R14
                                G19G31
 106486855.826 8  82976776.99347  20263777.669    20263777.098    20263782.516
        52.000          43.0004
 119768675.959 7  93153430.502 6  22444585.328    22444584.000    22444586.796
        43.000          37.000
 122225988.005 6  95241026.96643  23258837.322    23258835.060    23258841.004
        41.000          23.0004
 107698319.998 8  83920772.22146  20494309.969    20494309.026    20494312.429
        50.000          39.0004
 108892008.013 8  84693777.415 7  20356210.659    20356210.141    20356209.975
        49.000          44.000
 104667520.366 7  81408074.515 7  19573349.800    19573348.945    19573350.800
        44.000          45.000
 123848944.521 7  96505694.59044  23567660.117    23567660.714    23567663.134
        45.000          26.0004
 111986827.522 7  87262469.44446  21310384.381    21310383.452    21310386.939
        47.000          36.0004
 112664889.658 7  87628242.180 7  21039372.958    21039372.924    21039372.544
        46.000          42.000
 105429004.827 8  82152475.10546  20062475.981    20062475.602    20062477.179
        48.000          40.0004
 104884116.868 8  81576532.474 7  19620736.918    19620736.849    19620738.022
        50.000          46.000
 122361900.010 6  95170369.046 5  22954765.987                    22954773.032
        37.000          32.000
 120692747.466 7  94046296.28245  22967072.962    22967071.982    22967074.357
        46.000          32.0004
 122097618.864 7  95141013.00445  23234396.117    23234396.744    23234399.947
        46.000          30.0004
 13  2  4  9 29  0.0000000  0 14G01R06G14G32R19R20G23G20R04G11R05R14
                                G19G31
 107993129.385 8  84150496.64547  20550411.977    20550411.779    20550416.818
        50.000          43.0004
 121252522.844 7  94307533.685 6  22722656.282    22722656.216    22722659.269
        44.000          37.000
 123856757.415 6  96511756.28143  23569162.151    23569160.526    23569165.691
        41.000          23.0004
 109239107.924 8  85121386.18246  20787511.948    20787511.245    20787514.446
        51.000          39.0004
 110560118.562 8  85991196.678 7  20668046.464    20668045.680    20668046.040
        48.000          43.000
 106210095.214 7  82607854.940 7  19861818.918    19861818.177    19861820.104
        44.000          46.000
 125287827.474 7  97626902.16244  23841470.103    23841469.975    23841473.164
        44.000          26.0004
 113473556.247 8  88420959.38246  21593299.377    21593298.708    21593301.940
        48.000          36.0004
 114315958.045 7  88912406.438 7  21347698.351    21347698.921    21347697.422
        47.000          42.000
 106989074.778 8  83368114.01646  20359347.543    20359347.123    20359348.709
        50.000          41.0004
 106447793.026 8  82792725.043 7  19913254.702    19913254.384    19913256.354
        49.000          46.000
 123862012.616 6  96337123.330 5  23236180.936                    23236190.152
        37.000          32.000
 122335763.165 7  95326568.16345  23279728.721    23279727.718    23279729.399
        46.000          31.0004
 123573179.881 7  96290800.91845  23515186.184    23515186.491    23515189.705
        44.000          31.0004
 13  2  4  9 29 30.0000000  0 14G01R06G14G32R19R20G23G20R04G11R05R14
                                G19G31
 107924340.018 8  84096894.52647  20537322.036    20537321.475    20537326.552
        51.000          43.0004
 121136856.882 7  94217571.360 6  22700980.514    22700980.329    22700983.163
        44.000          37.000
 123912359.237 6  96555082.29343  23579743.391    23579741.852    23579746.715
        41.000          23.0004
 109204762.618 8  85094623.60046  20780976.344    20780975.646    20780978.767
        50.000          40.0004
 110625085.162 8  86041726.203 7  20680191.409    20680190.337    20680190.362
        49.000          43.000
 106150328.318 7  82561369.549 7  19850642.327    19850641.412    19850643.276
        44.000          46.000
 125151438.826 7  97520625.33244  23815516.402    23815515.379    23815519.913
        44.000          25.0004
 113385087.395 8  88352022.63246  21576464.601    21576464.039    21576466.795
        49.000          36.0004
 114361763.465 7  88948032.813 7  21356253.166    21356253.114    21356251.958
        47.000          42.000
 106974233.084 8  83356549.04746  20356523.522    20356522.954    20356524.533
        49.000          41.0004
 106409284.351 8  82762773.841 7  19906051.506    19906051.073    19906052.268
        50.000          46.000
 123764605.781 6  96261362.510 5  23217909.527                    23217917.558
        38.000          32.000
 122403536.896 7  95379378.76545  23292625.711    23292624.141    23292626.607
        47.000          31.0004
 123473630.198 7  96213229.82445  23496242.270    23496242.613    23496246.009
        44.000          30.0004
 13  2  4  9 30  0.0000000  0 14G01R06G14G32R19R20G23G20R04G11R05R14
                                G19G31
 107855914.114 8  84043575.62147  20524301.030    20524300.687    20524305.618
        53.000          43.0004
 121021434.269 7  94127798.307 6  22679351.241    22679350.498    22679353.284
        43.000          38.000
 123968211.417 6  96598603.40143  23590371.602    23590370.536    23590374.402
        41.000          23.0004
 109170706.822 8  85068086.61046  20774495.577    20774495.273    20774498.181
        51.000          40.0004
 110690592.391 7  86092676.217 7  20692436.860    20692435.903    20692436.736
        47.000          44.000
 106091351.019 7  82515498.313 7  19839612.619    19839612.598    19839614.375
        44.000          46.000
 125015207.135 7  97414470.81544  23789592.276    23789591.525    23789594.972
        43.000          25.0004
 113296846.555 8  88283263.56046  21559672.773    21559672.402    21559675.153
        49.000          36.0004
 114407679.923 7  88983745.570 7  21364827.040    21364827.192    21364826.558
        47.000          42.000
 106959902.673 8  83345382.47446  20353796.476    20353796.051    20353797.656
        49.000          40.0004
 106371155.955 8  82733118.406 7  19898918.689    19898918.451    19898919.398
        50.000          45.000
 123667751.619 6  96186031.545 5  23199740.548                    23199747.200
        38.000          32.000
 122471486.153 7  95432326.15845  23305556.116    23305554.096    23305557.666
        45.000          31.0004
 123374398.618 7  96135906.58545  23477359.180    23477359.077    23477363.028
        44.000          30.0004
 13  2  4  9 30 30.0000000  0 14G01R06G14G32R19R20G23G20R04G11R05R14
                                G19G31
 107787854.916 8  83990542.45747  20511349.822    20511349.157    20511354.351
        52.000          44.0004
 120906257.398 7  94038216.382 6  22657765.826    22657765.017    22657768.574
        42.000          38.000
 124024313.078 6  96642318.88143  23601047.129    23601046.461    23601051.429
        41.000          22.0004
 109136941.190 8  85041775.70646  20768070.286    20768069.919    20768072.871
        51.000          40.0004
 110756637.977 7  86144044.954 7  20704783.187    20704781.824    20704783.374
        47.000          44.000
 106033166.553 7  82470243.708 7  19828732.431    19828731.283    19828733.311
        44.000          46.000
 124879136.244 7  97308441.59244  23763698.777    23763698.667    23763701.795
        44.000          26.0004
 113208835.300 7  88214683.37746  21542924.927    21542923.916    21542927.259
        47.000          36.0004
 114453707.146 7  89019544.470 7  21373421.997    21373421.837    21373421.553
        46.000          42.000
 106946085.185 8  83334615.58846  20351167.044    20351166.793    20351168.387
        49.000          41.0004
 106333407.874 8  82703758.784 7  19891856.691    19891856.961    19891857.817
        50.000          46.000
 123571454.895 6  96111134.153 5  23181672.598                    23181682.267
        37.000          32.000
 122539609.881 7  95485409.49645  23318519.325    23318517.702    23318521.526
        44.000          32.0004
 123275489.635 7  96058834.73444  23458536.996    23458536.751    23458540.676
        45.000          29.0004
 13  2  4  9 31  0.0000000  0 14G01R06G14G32R19R20G23G20R04G11R05R14
                                G19G31
 107720163.048 8  83937795.53947  20498468.522    20498467.847    20498473.163
        52.000          43.0004
 120791325.078 6  93948824.652 6  22636228.272    22636227.535    22636231.053
        41.000          39.000
 124080660.519 7  96686225.89043  23611770.041    23611769.328    23611772.957
        42.000          23.0004
 109103463.660 8  85015689.31146  20761699.867    20761699.257    20761702.357
        51.000          40.0004
 110823217.296 7  86195828.817 7  20717229.273    20717228.927    20717229.787
        47.000          43.000
 105975775.286 7  82425606.033 7  19817999.390    19817998.814    19818000.697
        43.000          45.000
 124743226.759 7  97202538.13544  23737836.553    23737836.814    23737839.111
        44.000          27.0004
 113121052.717 8  88146281.39146  21526220.517    21526219.729    21526222.259
        48.000          36.0004
 114499842.153 7  89055427.220 6  21382037.878    21382037.722    21382036.940
        46.000          41.000
 106932778.897 8  83324247.03946  20348634.893    20348634.655    20348635.910
        50.000          41.0004
 106296037.795 8  82674693.158 7  19884866.372    19884866.408    19884867.153
        50.000          46.000
 123475718.915 6  96036672.840 5  23163713.750                    23163722.397
        36.000          32.000
 122607904.025 7  95538625.63745  23331515.661    23331514.274    23331517.411
        47.000          32.0004
 123176905.199 7  95982015.76444  23439777.042    23439776.551    23439780.037
        45.000          29.0004
 13  2  4  9 31 30.0000000  0 14G01R06G14G32R19R20G23G20R04G11R05R14
                                G19G31
 107652841.369 9  83885337.07847  20485657.559    20485657.017    20485662.327
        54.000          43.0004
 120676639.085 6  93859624.466 6  22614734.196    22614734.183    22614738.537
        39.000          38.000
 124137252.650 7  96730323.56543  23622539.023    23622539.545    23622542.655
        42.000          22.0004
 109070274.628 8  84989827.71546  20755384.256    20755383.290    20755386.871
        50.000          40.0004
 110890328.216 8  86248026.130 7  20729775.471    20729774.601    20729774.915
        48.000          43.000
 105919180.185 7  82381587.611 7  19807416.312    19807415.618    19807417.238
        44.000          45.000
 124607482.062 7  97096763.08744  23712005.438    23712006.104    23712007.327
        47.000          27.0004
 113033500.486 8  88078058.90246  21509559.489    21509559.431    21509561.694
        49.000          36.0004
 114546084.728 7  89091393.628 6  21390674.054    21390673.739    21390672.521
        47.000          41.000
 106919985.394 8  83314278.05446  20346200.549    20346199.766    20346201.333
        50.000          41.0004
 106259045.363 8  82645921.272 7  19877946.006    19877945.915    19877946.917
        50.000          45.000
 123380548.192 6  95962651.230 5  23145860.382                    23145868.968
        38.000          32.000
 122676367.261 7  95591973.52845  23344543.911    23344542.839    23344545.836
        46.000          32.0004
 123078649.447 7  95905452.92144  23421079.594    23421079.225    23421082.324
        45.000          29.0004
 13  2  4  9 32  0.0000000  0 14G01R06G14G32R19R20G23G20R04G11R05R14
                                G19G31
 107585890.006 8  83833167.17347  20472917.203    20472916.681    20472921.864
        52.000          43.0004
 120562197.661 6  93770614.511 6  22593288.130    22593288.083    22593292.402
        41.000          38.000
 124194085.492 7  96774608.81043  23633354.076    23633353.342    23633357.573
        42.000          23.0004
 109037371.637 8  84964189.00646  20749123.157    20749122.281    20749125.898
        51.000          40.0004
 110957965.314 8  86300632.697 7  20742420.114    20742418.722    20742419.378
        48.000          43.000
 105863381.234 7  82338188.416 7  19796981.439    19796981.291    19796982.537
        44.000          45.000
 124471902.730 7  96991116.90944  23686205.261    23686205.209    23686206.539
        46.000          27.0004
 112946177.070 8  88010014.69746  21492942.292    21492941.810    21492945.055
        48.000          36.0004
 114592431.269 7  89127440.886 6  21399328.469    21399328.363    21399327.382
        47.000          41.000
 106907703.006 8  83304707.34946  20343863.271    20343862.428    20343864.346
        49.000          41.0004
 106222427.767 8  82617440.915 7  19871095.769    19871095.699    19871097.159
        50.000          46.000
 123285945.234 6  95889071.178 5  23128113.547                    23128121.554
        39.000          32.000
 122744995.234 7  95645449.78945  23357603.258    23357603.016    23357605.162
        47.000          32.0004
 122980723.795 7  95829147.29244  23402444.510    23402444.468    23402447.996
        46.000          29.0004
 13  2  4  9 32 30.0000000  0 14G01R06G14G32R19R20G23G20R04G11R05R14
                                G19G31
 107519313.607 8  83781289.44947  20460248.011    20460247.394    20460252.397
        51.000          44.0004
 120448004.399 7  93681797.594 6  22571890.719    22571890.427    22571893.092
        43.000          39.000
 124251159.390 7  96819081.89443  23644214.731    23644214.760    23644218.056
        42.000          22.0004
 109004756.801 8  84938774.83946  20742916.886    20742915.966    20742919.423
        52.000          40.0004
 111026128.094 8  86353648.119 7  20755162.003    20755160.710    20755161.671
        49.000          43.000
 105808382.976 7  82295411.978 7  19786696.691    19786696.039    19786697.755
        44.000          45.000
 124336493.734 7  96885603.45044  23660437.794    23660437.738    23660439.491
        47.000          27.0004
 112859085.620 7  87942151.24245  21476368.733    21476368.452    21476372.055
        47.000          35.0004
 114638883.265 7  89163570.167 6  21408002.296    21408003.070    21408002.709
        46.000          40.000
 106895934.432 8  83295537.02246  20341623.440    20341623.312    20341625.107
        48.000          41.0004
 106186186.565 8  82589253.306 7  19864316.014    19864315.440    19864317.145
        50.000          46.000
 123191916.226 6  95815937.555 5  23110473.160                    23110482.702
        40.000          32.000
 122813788.709 8  95699055.00345  23370694.491    23370693.775    23370696.012
        48.000          32.0004
 122883134.279 7  95753103.57945  23383874.579    23383874.268    23383877.332
        45.000          30.0004
 13  2  4  9 33  0.0000000  0 14G01R06G14G32R19R20G23G20R04G11R05R14
                                G19G31
 107453115.284 8  83729706.32747  20447651.069    20447650.461    20447655.568
        53.000          43.0004
 120334060.578 7  93593174.695 6  22550536.825    22550536.999    22550539.701
        44.000          39.000
 124308473.113 7  96863741.85643  23655121.896    23655121.541    23655124.994
        42.000          23.0004
 108972430.651 8  84913585.62146  20736765.183    20736764.363    20736767.872
        50.000          39.0004
 111094814.492 8  86407070.809 7  20768002.477    20768001.554    20768001.752
        48.000          43.000
 105754188.558 7  82253260.757 7  19776561.782    19776561.521    19776563.526
        44.000          46.000
 124201258.297 7  96780225.23744  23634703.132    23634703.202    23634704.807
        46.000          27.0004
 112772227.722 7  87874469.79445  21459840.641    21459839.711    21459843.493
        47.000          35.0004
 114685440.252 7  89199781.104 6  21416697.381    21416697.303    21416696.982
        47.000          41.000
 106884681.189 8  83286768.24246  20339482.375    20339481.841    20339483.409
        49.000          41.0004
 106150321.817 8  82561358.505 7  19857606.632    19857606.508    19857608.052
        50.000          46.000
 123098466.494 6  95743254.439 5  23092943.588                    23092950.349
        39.000          32.000
 122882746.133 7  95752787.97045  23383816.426    23383815.543    23383818.483
        46.000          31.0004
 122785885.255 7  95677325.16444  23365368.256    23365368.095    23365371.319
        44.000          29.0004
 13  2  4  9 33 30.0000000  0 14G01R06G14G32R19R20G23G20R04G11R05R14
                                G19G31
 107387296.361 8  83678418.84347  20435126.163    20435125.206    20435130.571
        52.000          43.0004
 120220366.320 7  93504745.913 6  22529230.432    22529230.760    22529232.604
        44.000          38.000
 124366023.958 7  96908586.58443  23666072.969    23666073.008    23666076.609
        42.000          23.0004
 108940391.959 8  84888620.39346  20730668.441    20730667.602    20730670.932
        51.000          40.0004
 111164020.435 8  86460897.599 7  20780939.590    20780939.082    20780939.399
        49.000          43.000
 105700798.728 7  82211735.320 7  19766577.305    19766577.316    19766579.209
        44.000          46.000
 124066197.966 7  96674983.49744  23609001.876    23609001.871    23609003.321
        45.000          27.0004
 112685603.363 8  87806970.32146  21443357.219    21443356.109    21443359.459
        48.000          36.0004
 114732100.233 7  89236072.126 6  21425410.379    21425410.602    21425409.666
        47.000          40.000
 106873942.739 8  83278400.60746  20337439.042    20337438.248    20337439.892
        48.000          41.0004
 106114831.793 8  82533755.160 7  19850967.905    19850967.448    19850969.349
        50.000          46.000
 123005599.052 6  95671024.247 5  23075522.381                    23075529.196
        39.000          32.000
 122951864.292 7  95806646.20045  23396968.575    23396967.810    23396970.757
        45.000          31.0004
 122688979.519 7  95601814.26144  23346927.140    23346926.951    23346930.685
        45.000          29.0004
 13  2  4  9 34  0.0000000  0 14G01R06G14G32R19R20G23G20R04G11R05R14
                                G19G31
 107321857.766 8  83627427.72347  20422673.615    20422672.376    20422678.300
        52.000          44.0004
 120106920.899 7  93416510.687 6  22507971.227    22507970.779    22507972.423
        44.000          38.000
 124423808.692 7  96953613.56043  23677069.309    23677069.494    23677072.994
        42.000          23.0004
 108908639.116 8  84863877.90246  20724626.326    20724625.483    20724628.494
        51.000          40.0004
 111233741.504 8  86515125.034 7  20793972.792    20793972.302    20793973.067
        48.000          43.000
 105648214.655 7  82170836.567 7  19756743.837    19756743.866    19756745.528
        44.000          45.000
 123931314.230 7  96569879.35544  23583334.315    23583334.246    23583336.167
        45.000          27.0004
 112599211.900 8  87739652.32446  21426917.323    21426916.354    21426919.459
        48.000          36.0004
 114778860.712 7  89272441.325 6  21434142.902    21434142.743    21434141.712
        46.000          40.000
 106863718.229 8  83270433.43646  20335493.036    20335492.743    20335494.232
        48.000          40.0004
 106079714.384 8  82506441.614 7  19844398.728    19844398.372    19844399.681
        50.000          46.000
 122913316.648 6  95599249.062 5  23058208.061                    23058217.062
        38.000          32.000
 123021140.044 7  95860627.21245  23410151.678    23410150.682    23410154.062
        45.000          30.0004
 122592419.262 7  95526572.54944  23328552.620    23328552.621    23328555.725
        44.000          29.0004
 13  2  4  9 34 30.0000000  0 14G01R06G14G32R19R20G23G20R04G11R05R14
                                G19G31
 107256802.839 8  83576735.57447  20410293.842    20410293.149    20410298.715
        51.000          44.0004
 119993725.942 7  93328470.234 6  22486757.814    22486757.541    22486761.353
        43.000          38.000
 124481826.702 7  96998822.28343  23688109.996    23688109.405    23688113.516
        43.000          23.0004
 108877172.928 8  84839358.79046  20718638.216    20718637.843    20718640.640
        50.000          40.0004
 111303975.779 8  86569751.629 7  20807102.476    20807101.611    20807102.764
        48.000          43.000
 105596439.132 7  82130566.695 7  19747061.970    19747061.713    19747063.382
        44.000          45.000
 123796610.658 7  96464915.62244  23557701.066    23557701.002    23557703.192
        45.000          27.0004
 112513055.273 8  87672517.32246  21410522.411    21410521.571    21410524.210
        48.000          36.0004
 114825721.915 7  89308888.846 6  21442894.383    21442894.512    21442892.776
        47.000          40.000
 106854009.075 8  83262867.84546  20333646.046    20333645.232    20333646.977
        48.000          40.0004
 106044970.024 8  82479418.224 7  19837898.463    19837898.319    19837900.185
        50.000          46.000
 122821625.091 6  95527933.421 5  23041008.137                    23041015.900
        39.000          32.000
 123090572.271 7  95914730.16245  23423363.571    23423363.154    23423366.263
        45.000          30.0004
 122496208.920 7  95451603.50444  23310244.368    23310244.071    23310247.306
        44.000          29.0004
 13  2  4  9 35  0.0000000  0 14G01R06G14G32R19R20G23G20R04G11R05R14
                                G19G31
 107192132.954 8  83526343.45847  20397987.489    20397987.125    20397992.363
        53.000          44.0004
 119880781.905 7  93240624.936 6  22465592.455    22465592.325    22465595.012
        43.000          39.000
 124540075.175 7  97044210.61144  23699194.627    23699193.632    23699198.280
        42.000          24.0004
 108845992.227 8  84815062.13146  20712704.525    20712703.905    20712707.215
        50.000          40.0004
 111374719.152 7  86624774.190 7  20820327.159    20820325.971    20820327.508
        47.000          43.000
 105545473.157 7  82090926.475 7  19737531.128    19737530.218    19737532.450
        43.000          46.000
 123662088.933 7  96360093.59344  23532102.876    23532102.721    23532103.895
        45.000          27.0004
 112427133.367 8  87605565.22446  21394171.650    21394171.095    21394174.055
        48.000          36.0004
 114872681.818 7  89345413.152 6  21451663.005    21451663.136    21451662.941
        46.000          41.000
 106844814.850 8  83255703.50146  20331896.024    20331895.579    20331897.252
        49.000          41.0004
 106010596.846 8  82452683.528 7  19831468.433    19831467.908    19831469.850
        49.000          46.000
 122730527.156 6  95457079.456 5  23023919.022                    23023926.637
        39.000          33.000
 123160158.066 7  95968952.78045  23436605.818    23436605.438    23436607.902
        45.000          30.0004
 122400351.266 7  95376909.26345  23292004.067    23292003.539    23292007.089
        46.000          30.0004
 13  2  4  9 35 30.0000000  0 14G01R06G14G32R19R20G23G20R04G11R05R14
                                G19G31
 107127851.902 8  83476254.32147  20385755.254    20385754.490    20385759.998
        53.000          44.0004
 119768090.717 7  93152976.293 6  22444473.989    22444472.779    22444476.483
        42.000          38.000
 124598553.464 7  97089778.01144  23710322.505    23710321.871    23710326.586
        43.000          24.0004
 108815098.289 8  84790988.92946  20706826.316    20706824.812    20706828.446
        48.000          40.0004
 111445970.349 8  86680191.724 7  20833647.212    20833646.565    20833647.302
        48.000          43.000
 105495320.344 7  82051918.723 7  19728152.114    19728151.901    19728153.609
        44.000          46.000
 123527753.007 7  96255416.36244  23506539.594    23506538.729    23506540.548
        45.000          27.0004
 112341448.417 8  87538797.75746  21377866.538    21377865.906    21377868.845
        48.000          36.0004
 114919740.740 7  89382014.494 7  21460450.552    21460450.861    21460451.136
        46.000          42.000
 106836137.427 8  83248941.85846  20330244.732    20330244.197    20330246.050
        49.000          41.0004
 105976595.631 8  82426238.138 7  19825107.868    19825107.817    19825109.013
        49.000          46.000
 122640028.780 6  95386691.825 5  23006940.030                    23006949.109
        39.000          32.000
 123229897.003 7  96023294.70945  23449877.674    23449877.024    23449879.480
        45.000          31.0004
 122304851.552 7  95302493.93745  23273831.190    23273830.828    23273834.364
        47.000          31.0004
 13  2  4  9 36  0.0000000  0 14G01R06G14G32R19R20G23G20R04G11R05R14
                                G19G31
 107063962.051 8  83426470.02347  20373597.199    20373596.652    20373602.323
        51.000          44.0004
 119655653.357 7  93065525.084 6  22423403.679    22423404.231    22423404.782
        44.000          38.000
 124657259.943 7  97135523.22244  23721493.780    23721493.517    23721497.391
        42.000          24.0004
 108784490.917 8  84767139.01646  20701001.565    20701000.887    20701004.058
        50.000          40.0004
 111517726.236 8  86736001.783 7  20847061.769    20847060.850    20847061.577
        48.000          43.000
 105445982.580 7  82013544.898 7  19718926.344    19718925.414    19718927.365
        44.000          45.000
 123393605.606 7  96150886.03244  23481011.536    23481010.274    23481013.212
        44.000          27.0004
 112256001.359 7  87472215.66746  21361606.226    21361605.672    21361608.826
        47.000          36.0004
 114966898.109 7  89418692.408 7  21469257.671    21469257.638    21469257.557
        46.000          42.000
 106827977.603 8  83242583.53546  20328691.738    20328691.793    20328693.094
        49.000          41.0004
 105942965.797 8  82400081.580 7  19818817.038    19818816.359    19818818.046
        49.000          46.000
 122550133.778 6  95316773.492 5  22990077.546                    22990084.967
        40.000          32.000
 123299787.098 7  96077754.42245  23463177.101    23463176.451    23463179.441
        45.000          31.0004
 122209713.191 7  95228360.17145  23255726.385    23255726.785    23255729.250
        45.000          30.0004
 13  2  4  9 36 30.0000000  0 14G01R06G14G32R19R20G23G20R04G11R05R14
                                G19G31
 107000464.522 8  83376991.42947  20361514.003    20361513.861    20361519.220
        52.000          44.0004
 119543470.050 7  92978271.459 6  22402379.994    22402379.957    22402381.786
        42.000          38.000
 124716191.983 7  97181444.17544  23732708.397    23732707.658    23732712.429
        42.000          24.0004
 108754168.770 8  84743511.36946  20695231.385    20695230.813    20695234.029
        51.000          40.0004
 111589982.471 8  86792201.011 7  20860568.782    20860568.643    20860569.164
        48.000          43.000
 105397460.952 7  81975805.839 7  19709851.606    19709851.928    19709853.351
        44.000          46.000
 123259647.988 7  96046503.58644  23455519.743    23455519.211    23455522.126
        44.000          26.0004
 112170792.001 7  87405818.79246  21345391.734    21345391.257    21345394.144
        47.000          36.0004
 115014151.457 7  89455444.952 6  21478082.215    21478082.298    21478081.412
        47.000          41.000
 106820334.301 8  83236627.69046  20327237.664    20327237.486    20327238.643
        49.000          41.0004
 105909705.282 8  82374212.283 7  19812594.816    19812594.449    19812596.054
        50.000          46.000
 122460845.365 6  95247326.966 5  22973328.246                    22973334.769
        38.000          33.000
 123369825.129 7  96132329.42845  23476505.287    23476503.994    23476507.286
        45.000          31.0004
 122114938.829 8  95154510.05545  23237691.363    23237692.330    23237694.056
        48.000          30.0004
 13  2  4  9 37  0.0000000  0 14G01R06G14G32R19R20G23G20R04G11R05R14
                                G19G31
 106937361.298 8  83327820.08047  20349506.154    20349505.656    20349510.939
        53.000          44.0004
 119431540.516 7  92891215.186 6  22381404.447    22381404.520    22381406.678
        43.000          39.000
 124775347.187 7  97227539.03544  23743965.022    23743964.584    23743969.369
        43.000          24.0004
 108724131.239 8  84720105.49346  20689515.611    20689514.816    20689518.110
        51.000          40.0004
 111662735.976 8  86848787.002 7  20874170.534    20874169.305    20874169.409
        48.000          42.000
 105349756.472 7  81938702.332 7  19700930.991    19700931.035    19700932.626
        44.000          46.000
 123125882.800 7  95942271.08144  23430064.647    23430063.996    23430067.930
        44.000          27.0004
 112085820.719 8  87339607.42946  21329221.861    21329221.737    21329224.311
        49.000          37.0004
 115061499.793 7  89492271.374 6  21486923.517    21486923.488    21486923.135
        46.000          41.000
 106813207.827 8  83231074.56846  20325881.572    20325881.111    20325882.480
        49.000          41.0004
 105876813.275 8  82348629.600 7  19806442.049    19806441.455    19806442.919
        49.000          46.000
 122372167.410 6  95178355.206 5  22956689.925                    22956698.880
        38.000          33.000
 123440008.864 7  96187017.95545  23489860.897    23489859.501    23489862.483
        46.000          30.0004
 122020531.546 7  95080945.95745  23219725.769    23219726.373    23219729.380
        47.000          30.0004
 13  2  4  9 37 30.0000000  0 14G01R06G14G32R19R20G23G20R04G11R05R14
                                G19G31
 106874653.289 8  83278956.69047  20337573.091    20337572.731    20337578.105
        53.000          44.0004
 119319864.571 7  92804356.139 6  22360476.563    22360476.270    22360478.476
        43.000          39.000
 124834722.343 7  97273805.28544  23755263.939    23755263.651    23755268.341
        43.000          24.0004
 108694376.720 8  84696920.14846  20683853.431    20683852.549    20683855.936
        52.000          40.0004
 111735981.966 7  86905756.030 7  20887861.683    20887860.746    20887861.940
        47.000          42.000
 105302869.751 7  81902234.881 7  19692162.545    19692162.382    19692164.314
        43.000          46.000
 122992311.198 7  95838189.40944  23404647.518    23404646.474    23404649.931
        43.000          27.0004
 112001087.085 8  87273581.22846  21313097.506    21313097.191    21313099.995
        48.000          36.0004
 115108940.532 7  89529169.648 6  21495783.408    21495782.987    21495782.725
        46.000          41.000
 106806596.986 8  83225923.24146  20324623.511    20324622.858    20324624.840
        50.000          41.0004
 105844287.362 8  82323331.659 7  19800357.087    19800356.783    19800358.228
        49.000          46.000
 122284102.475 6  95109860.231 5  22940168.468                    22940178.951
        38.000          33.000
 123510334.805 7  96241817.29445  23503243.252    23503242.566    23503244.966
        45.000          30.0004
 121926493.604 7  95007669.65545  23201831.539    23201831.033    23201834.715
        46.000          30.0004
 13  2  4  9 38  0.0000000  0 14G01R06G14G32R19R20G23G20R04G11R05R14
                                G19G31
 106812342.538 8  83230402.85147  20325715.852    20325715.248    20325720.753
        52.000          44.0004
 119208442.382 7  92717694.435 6  22339595.329    22339595.297    22339597.909
        42.000          38.000
 124894315.630 7  97320241.50843  23766604.675    23766604.301    23766608.512
        43.000          23.0004
 108664904.914 8  84673955.09946  20678245.261    20678244.550    20678247.752
        51.000          40.0004
 111809717.177 7  86963105.566 7  20901646.312    20901645.122    20901645.961
        47.000          42.000
 105256802.391 7  81866404.695 7  19683547.930    19683547.627    19683549.694
        43.000          46.000
 122858935.539 7  95734260.42144  23379267.246    23379265.790    23379268.924
        44.000          27.0004
 111916591.753 8  87207740.72646  21297018.528    21297018.047    21297021.070
        49.000          36.0004
 115156472.701 7  89566139.058 6  21504659.585    21504659.429    21504659.206
        46.000          41.000
 106800502.105 8  83221173.96746  20323463.610    20323462.783    20323465.096
        49.000          40.0004
 105812126.582 8  82298317.718 7  19794340.638    19794340.363    19794342.009
        50.000          47.000
 122196654.357 6  95041845.027 5  22923765.787                    22923773.791
        39.000          32.000
 123580800.533 7  96296725.56945  23516652.886    23516651.637    23516654.651
        45.000          30.0004
 121832828.348 7  94934683.76245  23184007.262    23184007.409    23184010.807
        46.000          30.0004
 13  2  4  9 38 30.0000000  0 14G01R06G14G32R19R20G23G20R04G11R05R14
                                G19G31
 106750427.739 8  83182157.54947  20313933.853    20313933.402    20313938.882
        53.000          45.0004
 119097271.565 7  92631228.282 6  22318762.121    22318761.992    22318764.827
        43.000          39.000
 124954121.561 7  97366843.42943  23777985.371    23777985.597    23777989.137
        43.000          23.0004
 108635711.864 8  84651207.26246  20672689.897    20672689.046    20672692.327
        51.000          40.0004
 111883934.848 7  87020830.366 7  20915519.775    20915518.477    20915520.315
        46.000          42.000
 105211552.369 7  81831210.225 7  19675086.486    19675086.104    19675087.744
        43.000          46.000
 122725754.417 7  95630483.04444  23353922.922    23353922.158    23353925.514
        44.000          27.0004
 111832332.062 8  87142083.84146  21280984.018    21280983.314    21280986.731
        48.000          36.0004
 115204091.737 7  89603176.009 6  21513552.592    21513552.130    21513551.886
        46.000          41.000
 106794919.788 8  83216824.08946  20322401.287    20322400.506    20322402.778
        48.000          40.0004
 105780326.751 8  82273584.503 7  19788392.163    19788391.665    19788393.266
        50.000          47.000
 122109823.683 6  94974310.070 5  22907476.103                    22907483.506
        38.000          32.000
 123651400.852 7  96351738.71245  23530087.685    23530086.499    23530089.563
        45.000          30.0004
 121739535.675 7  94861988.18945  23166253.847    23166254.358    23166257.392
        45.000          30.0004
 13  2  4  9 39  0.0000000  0 14G01R06G14G32R19R20G23G20R04G11R05R14
                                G19G31
 106688915.798 8  83134226.16147  20302228.530    20302227.832    20302233.403
        52.000          44.0004
 118986357.550 7  92544961.824 6  22297977.257    22297977.038    22297979.983
        44.000          39.000
 125014142.831 7  97413613.12743  23789407.287    23789407.085    23789410.836
        42.000          22.0004
 108606802.148 8  84628680.20146  20667188.660    20667187.650    20667191.028
        52.000          40.0004
 111958636.603 8  87078931.653 7  20929484.949    20929484.075    20929485.568
        48.000          43.000
 105167126.011 7  81796656.381 7  19666777.769    19666777.512    19666779.513
        43.000          46.000
 122592775.624 7  95526863.30644  23328617.858    23328617.328    23328620.714
        45.000          28.0004
 111748313.328 8  87076614.70846  21264996.051    21264995.216    21264998.452
        48.000          36.0004
 115251801.164 7  89640283.292 6  21522461.463    21522461.663    21522461.351
        46.000          41.000
 106789855.117 8  83212877.56446  20321437.663    20321437.336    20321438.866
        50.000          41.0004
 105748891.675 8  82249134.992 7  19782510.876    19782510.855    19782512.486
        49.000          46.000
 122023618.680 6  94907261.751 5  22891303.819                    22891311.724
        38.000          32.000
 123722138.106 7  96406858.54445  23543548.476    23543546.945    23543550.992
        44.000          30.0004
 121646623.721 7  94789589.29645  23148573.495    23148573.647    23148576.925
        46.000          30.0004
 13  2  4  9 39 30.0000000  0 15G01R06G14G32R19R20G23G20R04G11R05R21
                                R14G19G31
 106627807.581 8  83086609.35747  20290599.937    20290599.385    20290604.855
        52.000          44.0004
 118875699.079 7  92458894.152 6  22277240.410    22277240.074    22277242.074
        44.000          39.000
 125074376.358 7  97460548.23043  23800868.641    23800869.539    23800872.908
        42.000          23.0004
 108578174.020 8  84606372.55646  20661740.684    20661739.754    20661743.215
        50.000          40.0004
 112033817.883 8  87137405.913 7  20943539.996    20943539.274    20943540.017
        48.000          43.000
 105123523.631 7  81762743.413 7  19658624.569    19658623.832    19658625.423
        43.000          46.000
 122459999.960 7  95423401.86144  23303351.751    23303351.355    23303354.206
        44.000          28.0004
 111664535.000 8  87011332.90646  21249053.915    21249053.411    21249055.837
        48.000          36.0004
 115299599.162 7  89677459.443 6  21531387.521    21531387.602    21531387.202
        45.000          41.000
 106785306.842 8  83209333.42946  20320572.374    20320571.949    20320573.332
        48.000          41.0004
 105717819.205 8  82224967.495 7  19776698.235    19776697.680    19776699.885
        49.000          47.000
 119130754.902 6  92657260.268    22262424.014    22262424.684    22262424.898
        36.000           1.000
 121938042.099 6  94840702.189 5  22875249.889                    22875257.950
        38.000          32.000
 123793009.043 7  96462082.55745  23557035.100    23557033.465    23557037.546
        46.000          30.0004
 121554094.864 7  94717488.91645  23130966.343    23130965.196    23130969.418
        45.000          30.0004
 13  2  4  9 40  0.0000000  0 15G01R06G14G32R19R20G23G20R04G11R05R21
                                R14G19G31
 106567104.779 8  83039308.46347  20279048.577    20279048.324    20279053.617
        51.000          44.0004
 118765296.976 7  92373025.852 6  22256550.841    22256550.645    22256553.156
        45.000          40.000
 125134819.848 7  97507646.93643  23812371.244    23812371.202    23812374.948
        43.000          22.0004
 108549826.706 8  84584283.72546  20656346.385    20656345.485    20656349.019
        51.000          40.0004
 112109474.966 8  87196250.226 7  20957683.158    20957682.561    20957683.358
        48.000          43.000
 105080746.358 7  81729472.179 7  19650624.970    19650624.713    19650626.249
        43.000          46.000
 122327429.425 7  95320100.23944  23278123.775    23278123.727    23278126.654
        46.000          29.0004
 111580997.545 8  86946238.79346  21233157.437    21233156.658    21233159.349
        49.000          37.0004
 115347483.971 7  89714703.107 6  21540328.994    21540329.131    21540329.078
        44.000          40.000
 106781274.682 7  83206191.45846  20319804.872    20319804.616    20319806.182
        46.000          41.0004
 105687107.965 8  82201080.960 7  19770953.059    19770953.057    19770954.567
        49.000          47.000
 118989425.965 6  92547337.811 5  22236012.897    22236013.255    22236013.658
        36.000          30.000
 121853097.555 6  94774634.224 5  22859315.022                    22859323.184
        40.000          32.000
 123864010.896 7  96517408.58645  23570545.981    23570544.644    23570548.853
        44.000          30.0004
 121461951.806 7  94645689.17245  23113431.633    23113431.336    23113435.317
        46.000          31.0004
 13  2  4  9 40 30.0000000  0 15G01R06G14G32R19R20G23G20R04G11R05R21
                                R14G19G31
 106506811.245 8  82992326.48247  20267575.286    20267575.051    20267580.221
        53.000          45.0004
 118655153.273 7  92287358.543 6  22235910.412    22235909.800    22235911.631
        44.000          39.000
 125195473.010 7  97554909.04243  23823913.813    23823913.208    23823917.399
        43.000          22.0004
 108521761.602 8  84562414.79746  20651005.792    20651005.181    20651008.384
        50.000          40.0004
 112185606.272 8  87255463.400 7  20971914.727    20971914.331    20971915.499
        48.000          43.000
 105038797.178 7  81696845.047 7  19642780.184    19642780.077    19642781.648
        43.000          46.000
 122195068.612 7  95216962.02244  23252936.429    23252936.597    23252938.713
        47.000          29.0004
 111497703.262 8  86881334.16746  21217307.323    21217306.766    21217309.154
        48.000          37.0004
 115395456.478 7  89752014.992 6  21549287.494    21549288.182    21549288.242
        45.000          41.000
 106777760.889 8  83203453.41346  20319135.995    20319135.808    20319137.468
        50.000          41.0004
 105656758.948 8  82177476.154 7  19765276.233    19765275.678    19765277.106
        50.000          46.000
 118848538.725 6  92437758.894 5  22209685.362    22209685.164    22209685.777
        37.000          31.000
 121768790.370 6  94709061.979 5  22843498.335                    22843507.004
        39.000          32.000
 123935143.421 7  96572836.42844  23584082.072    23584080.376    23584084.432
        45.000          29.0004
 121370199.560 7  94574193.94345  23095971.929    23095972.133    23095975.905
        46.000          31.0004
 13  2  4  9 41  0.0000000  0 15G01R06G14G32R19R20G23G20R04G11R05R21
                                R14G19G31
 106446928.510 8  82945664.59447  20256180.254    20256179.722    20256184.821
        53.000          44.0004
 118545268.610 7  92201892.680 6  22215317.477    22215316.883    22215319.074
        44.000          39.000
 125256333.498 7  97602332.68143  23835495.124    23835495.841    23835499.167
        43.000          22.0004
 108493977.811 8  84540765.07146  20645718.734    20645718.388    20645721.377
        50.000          40.0004
 112262208.046 7  87315042.486 7  20986234.396    20986233.480    20986235.013
        47.000          42.000
 104997676.890 7  81664862.573 7  19635090.257    19635090.192    19635091.875
        44.000          45.000
 122062918.908 7  95113988.31244  23227789.623    23227789.537    23227791.750
        46.000          28.0004
 111414652.409 8  86816619.20546  21201503.284    21201502.745    21201504.874
        48.000          37.0004
 115443515.173 7  89789393.898 6  21558262.910    21558263.082    21558263.261
        45.000          41.000
 106774764.416 8  83201118.47046  20318566.402    20318565.966    20318567.239
        50.000          41.0004
 105626770.541 8  82154151.811 7  19759665.764    19759665.264    19759667.241
        48.000          46.000
 118708097.632 6  92328526.983 5  22183439.515    22183439.832    22183441.012
        38.000          31.000
 121685123.674 6  94643987.892 5  22827802.690                    22827811.720
        39.000          32.000
 124006404.128 7  96628364.14944  23597642.565    23597641.104    23597644.737
        43.000          29.0004
 121278841.180 7  94503005.63045  23078587.013    23078587.609    23078590.418
        46.000          31.0004
 13  2  4  9 41 30.0000000  0 15G01R06G14G32R19R20G23G20R04G11R05R21
                                R14G19G31
 106387456.409 8  82899322.68547  20244863.110    20244862.274    20244867.826
        53.000          45.0004
 118435640.544 7  92116626.443 6  22194772.444    22194772.470    22194774.918
        43.000          38.000
 125317397.003 7  97649914.52843  23847115.018    23847115.821    23847118.434
        43.000          23.0004
 108466472.685 8  84519332.48746  20640484.947    20640484.373    20640487.257
        50.000          40.0004
 112339274.494 7  87374982.984 7  21000641.326    21000640.715    21000641.455
        47.000          42.000
 104957384.492 7  81633524.023 7  19627556.226    19627555.463    19627557.188
        44.000          45.000
 121930980.633 7  95011179.33744  23202682.711    23202682.415    23202684.273
        45.000          28.0004
 111331843.171 8  86752092.52146  21185745.150    21185744.721    21185746.949
        50.000          37.0004
 115491656.711 7  89826837.264 6  21567251.943    21567252.744    21567253.205
        45.000          41.000
 106772283.642 8  83199185.37546  20318094.194    20318093.496    20318095.413
        48.000          41.0004
 105597139.527 8  82131105.452 7  19754122.576    19754122.293    19754124.218
        49.000          46.000
 118568104.939 6  92219643.833 5  22157280.197    22157278.394    22157280.055
        39.000          32.000
 121602098.801 6  94579413.028 5  22812229.829                    22812236.691
        41.000          32.000
 124077788.055 7  96683987.90444  23611225.959    23611225.558    23611228.812
        44.000          28.0004
 121187877.471 7  94432124.87545  23061277.495    23061278.110    23061280.089
        46.000          31.0004
 13  2  4  9 42  0.0000000  0 15G01R06G14G32R19R20G23G20R04G11R05R21
                                R14G19G31
 106328396.757 8  82853302.17347  20233624.172    20233623.232    20233629.060
        53.000          44.0004
 118326270.011 7  92031560.481 6  22174277.002    22174276.210    22174278.942
        43.000          38.000
 125378661.555 7  97697653.00443  23858773.730    23858773.349    23858777.269
        43.000          23.0004
 108439245.640 8  84498116.58946  20635303.937    20635303.281    20635306.332
        49.000          40.0004
 112416802.069 7  87435282.135 6  21015134.693    21015133.834    21015134.133
        47.000          41.000
 104917921.035 7  81602830.205 7  19620175.409    19620174.777    19620177.416
        43.000          46.000
 121799255.792 7  94908536.67144  23177616.144    23177615.736    23177617.965
        46.000          28.0004
 111249276.096 8  86687754.54646  21170032.729    21170032.200    21170034.921
        49.000          37.0004
 115539879.810 7  89864344.052 6  21576258.128    21576258.094    21576258.053
        45.000          41.000
 106770318.257 8  83197653.88346  20317719.780    20317719.899    20317721.288
        49.000          41.0004
 105567864.850 8  82108336.263 7  19748646.572    19748646.152    19748647.737
        50.000          47.000
 118428565.089 6  92111112.869 5  22131203.375    22131202.549    22131203.737
        40.000          32.000
 121519719.102 6  94515339.971 5  22796773.052                    22796781.574
        40.000          32.000
 124149293.322 7  96739706.17244  23624833.389    23624833.131    23624836.263
        46.000          28.0004
 121097311.474 7  94361554.03145  23044043.012    23044043.387    23044046.060
        47.000          31.0004
 13  2  4  9 42 30.0000000  0 15G01R06G14G32R19R20G23G20R04G11R05R21
                                R14G19G31
 106269752.349 8  82807605.22647  20222464.638    20222463.762    20222469.291
        51.000          44.0004
 118217157.638 7  91946695.309 6  22153828.652    22153828.813    22153831.546
        44.000          38.000
 125440125.815 7  97745547.10343  23870470.170    23870470.186    23870472.891
        42.000          23.0004
 108412296.980 8  84477117.63146  20630175.602    20630174.839    20630178.099
        51.000          40.0004
 112494788.122 7  87495937.860 6  21029713.296    21029712.348    21029712.680
        46.000          41.000
 104879288.497 7  81572782.681 7  19612951.309    19612950.947    19612952.804
        44.000          45.000
 121667747.774 7  94806062.95344  23152591.116    23152591.072    23152592.650
        47.000          29.0004
 111166952.910 8  86623606.62346  21154367.298    21154366.298    21154369.529
        48.000          37.0004
 115588184.340 7  89901914.182 6  21585279.012    21585279.518    21585278.819
        46.000          40.000
 106768869.003 8  83196524.56446  20317444.137    20317443.878    20317445.547
        49.000          40.0004
 105538946.244 8  82085844.011 7  19743236.507    19743236.040    19743238.102
        49.000          46.000
 118289483.424 6  92002938.304 5  22105212.123    22105212.008    22105212.496
        41.000          32.000
 121437989.548 6  94451772.559 5  22781441.020                    22781449.058
        39.000          32.000
 124220918.253 7  96795517.69744  23638463.815    23638462.830    23638466.120
        45.000          29.0004
 121007147.169 7  94291296.17845  23026884.901    23026885.468    23026888.481
        46.000          31.0004
 13  2  4  9 43  0.0000000  0 15G01R06G14G32R19R20G23G20R04G11R05R21
                                R14G19G31
 106211526.354 8  82762234.31047  20211384.427    20211383.839    20211389.299
        52.000          44.0004
 118108305.660 7  91862032.699 6  22133431.489    22133431.483    22133432.976
        45.000          38.000
 125501788.619 7  97793595.90943  23882204.487    23882203.777    23882207.690
        42.000          23.0004
 108385627.492 8  84456336.19846  20625100.712    20625099.647    20625103.117
        51.000          40.0004
 112573230.455 7  87556948.481 7  21044376.783    21044376.404    21044377.322
        47.000          42.000
 104841489.122 7  81543383.146 7  19605882.976    19605882.717    19605884.175
        44.000          45.000
 121536459.764 7  94703760.66444  23127607.922    23127606.983    23127608.810
        45.000          29.0004
 111084874.969 8  86559649.78046  21138748.138    21138747.581    21138750.259
        49.000          38.0004
 115636570.418 7  89939547.742 6  21594314.966    21594315.360    21594314.898
        45.000          41.000
 106767936.927 8  83195798.24246  20317267.097    20317266.306    20317268.280
        50.000          41.0004
 105510383.865 8  82063628.810 7  19737893.557    19737893.404    19737894.601
        49.000          46.000
 118150865.990 7  91895124.785 5  22079308.203    22079307.671    22079308.671
        42.000          32.000
 121356914.166 6  94388713.988 5  22766231.153                    22766240.203
        38.000          32.000
 124292661.715 7  96851421.59144  23652115.859    23652115.123    23652118.340
        44.000          29.0004
 120917389.315 7  94221355.04645  23009804.058    23009805.037    23009807.895
        45.000          31.0004
 13  2  4  9 43 30.0000000  0 15G01R06G14G32R19R20G23G20R04G11R05R21
                                R14G19G31
 106153720.765 8  82717190.98547  20200384.346    20200384.120    20200388.902
        52.000          46.0004
 117999714.299 7  91777572.746 6  22113081.181    22113081.391    22113082.414
        44.000          38.000
 125563648.338 7  97841798.17143  23893976.091    23893975.134    23893979.407
        43.000          23.0004
 108359236.755 8  84435771.97946  20620078.481    20620077.714    20620080.932
        50.000          40.0004
 112652125.522 7  87618311.241 7  21059125.773    21059124.703    21059126.469
        46.000          42.000
 104804524.040 7  81514632.494 7  19598970.485    19598969.804    19598971.487
        44.000          46.000
 121405394.266 7  94601631.77044  23102666.222    23102665.960    23102668.456
        45.000          29.0004
 111003043.106 8  86495884.70146  21123176.205    21123175.882    21123178.314
        49.000          38.0004
 115685037.184 7  89977244.057 6  21603365.703    21603365.847    21603365.839
        45.000          40.000
 106767522.076 8  83195474.95146  20317187.463    20317187.609    20317189.555
        50.000          41.0004
 105482176.726 8  82041689.918 7  19732616.742    19732616.743    19732617.936
        49.000          46.000
 118012716.900 7  91787675.545 5  22053492.212    22053491.478    22053492.770
        43.000          32.000
 121276496.773 6  94326167.153 5  22751145.254                    22751153.902
        39.000          32.000
 124364521.620 7  96907416.22144  23665790.544    23665789.305    23665792.964
        44.000          28.0004
 120828041.116 7  94151733.12145  22992802.390    22992801.988    22992804.960
        45.000          31.0004
 13  2  4  9 44  0.0000000  0 15G01R06G14G32R19R20G23G20R04G11R05R21
                                R14G19G31
 106096335.496 8  82672475.17247  20189464.236    20189463.885    20189468.816
        52.000          44.0004
 117891382.004 7  91693314.339 6  22092780.208    22092780.099    22092781.856
        45.000          39.000
 125625701.232 7  97890150.94943  23905784.136    23905783.474    23905788.306
        43.000          23.0004
 108333122.267 8  84415423.01646  20615108.871    20615108.219    20615111.557
        51.000          40.0004
 112731467.811 7  87680021.846 7  21073958.158    21073957.412    21073958.839
        47.000          42.000
 104768392.122 7  81486529.882 7  19592212.436    19592212.526    19592214.723
        43.000          46.000
 121274551.780 7  94499676.63844  23077768.085    23077767.808    23077770.603
        46.000          29.0004
 110921456.054 8  86432310.37346  21107650.660    21107650.586    21107653.009
        48.000          38.0004
 115733581.479 7  90015000.655 6  21612431.199    21612431.146    21612430.654
        46.000          40.000
 106767622.298 8  83195553.02146  20317207.437    20317206.740    20317208.627
        49.000          41.0004
 105454321.922 8  82020025.056 7  19727405.984    19727405.263    19727407.297
        49.000          46.000
 117875039.188 7  91680592.943 5  22027762.586    22027763.085    22027764.018
        43.000          32.000
 121196738.704 6  94264133.107 5  22736184.545                    22736192.059
        39.000          32.000
 124436493.565 7  96963498.15744  23679486.517    23679484.890    23679488.826
        43.000          28.0004
 120739103.280 7  94082430.96845  22975877.339    22975878.726    22975880.934
        47.000          31.0004
 13  2  4  9 44 30.0000000  0 15G01R06G14G32R19R20G23G20R04G11R05R21
                                R14G19G31
 106039371.305 8  82628087.47747  20178624.766    20178623.981    20178629.171
        52.000          45.0004
 117783307.889 7  91609256.688 6  22072526.816    22072526.583    22072528.237
        44.000          39.000
 125687943.609 7  97938651.38443  23917628.096    23917627.533    23917631.858
        42.000          23.0004
 108307282.311 8  84395287.97546  20610191.371    20610191.163    20610194.378
        50.000          40.0004
 112811252.658 7  87742076.629 7  21088873.237    21088872.416    21088873.582
        47.000          42.000
 104733093.088 7  81459075.067 7  19585611.135    19585611.694    19585613.744
        44.000          46.000
 121143932.897 7  94397895.72445  23052911.812    23052911.467    23052914.826
        45.000          30.0004
 110840113.016 8  86368926.20246  21092171.950    21092171.411    21092173.968
        49.000          38.0004
 115782200.911 7  90052815.698 6  21621511.055    21621510.811    21621510.004
        46.000          39.000
 106768236.182 8  83196031.34346  20317323.850    20317323.571    20317325.234
        49.000          41.0004
 105426817.023 8  81998632.336 7  19722260.350    19722259.869    19722262.083
        49.000          46.000
 117737835.794 7  91573879.241 5  22002123.696    22002123.556    22002124.010
        43.000          32.000
 121117642.449 6  94202613.819 5  22721346.460                    22721352.888
        40.000          32.000
 124508574.350 7  97019664.89444  23693202.655    23693201.263    23693204.893
        43.000          28.0004
 120650577.870 7  94013450.18745  22959031.669    22959032.233    22959035.774
        47.000          31.0004
 13  2  4  9 45  0.0000000  0 15G01R06G14G32R19R20G23G20R04G11R05R21
                                R14G19G31
 105982829.275 8  82584028.74347  20167864.925    20167864.292    20167869.804
        51.000          45.0004
 117675491.813 7  91525399.760 6  22052321.130    22052321.097    22052323.986
        43.000          39.000
 125750372.906 7  97987297.45443  23929508.086    23929508.003    23929511.999
        43.000          23.0004
 108281715.640 8  84375365.87946  20605326.816    20605325.706    20605329.262
        48.000          39.0004
 112891475.695 7  87804472.249 7  21103870.227    21103869.477    21103870.434
        47.000          42.000
 104698627.165 7  81432268.193 7  19579166.364    19579166.202    19579168.229
        44.000          46.000
 121013539.493 7  94296290.50745  23028099.370    23028098.078    23028101.405
        46.000          30.0004
 110759013.994 7  86305732.16946  21076739.004    21076738.349    21076741.291
        47.000          38.0004
 115830893.882 7  90090687.928 6  21630603.815    21630604.028    21630603.747
        46.000          40.000
 106769362.966 8  83196909.31746  20317538.646    20317538.104    20317539.829
        49.000          41.0004
 105399660.265 8  81977510.407 7  19717180.719    19717180.602    19717181.628
        49.000          46.000
 117601110.937 7  91467537.732 5  21976573.529    21976573.643    21976573.564
        42.000          32.000
 121039209.978 6  94141610.829 5  22706631.820                    22706639.272
        40.000          33.000
 124580760.851 7  97075914.01744  23706939.674    23706938.635    23706941.269
        44.000          28.0004
 120562467.367 7  93944792.69745  22942265.262    22942265.085    22942269.020
        46.000          32.0004
 13  2  4  9 45 30.0000000  0 15G01R06G14G32R19R20G23G20R04G11R05R21
                                R14G19G31
 105926714.835 8  82540303.18747  20157186.815    20157186.038    20157191.606
        52.000          45.0004
 117567937.577 7  91441746.466 6  22032165.420    22032165.536    22032167.804
        43.000          39.000
 125812990.308 7  98036090.09343  23941424.130    23941423.213    23941428.137
        44.000          23.0004
 108256425.325 8  84355659.12346  20600514.392    20600513.237    20600516.804
        50.000          40.0004
 112972136.941 7  87867208.702 6  21118949.342    21118948.110    21118949.043
        47.000          41.000
 104664998.396 7  81406112.474 7  19572877.734    19572877.703    19572879.874
        44.000          46.000
 120883377.006 7  94194865.21745  23003329.968    23003329.403    23003332.210
        46.000          30.0004
 110678162.756 8  86242731.21046  21061353.055    21061352.679    21061355.801
        49.000          38.0004
 115879662.953 7  90128619.351 6  21639710.626    21639710.688    21639711.075
        45.000          40.000
 106771005.921 8  83198189.51246  20317851.151    20317850.630    20317852.571
        50.000          41.0004
 105372854.114 8  81956661.157 7  19712166.035    19712165.791    19712166.994
        50.000          46.000
 117464872.231 7  91361574.353 5  21951114.795    21951113.933    21951113.823
        42.000          32.000
 120961448.672 6  94081129.855 5  22692043.636                    22692051.864
        40.000          32.000
 124653054.164 7  97132246.34744  23720696.496    23720695.913    23720698.442
        44.000          28.0004
 120474778.297 7  93876463.59945  22925578.828    22925578.367    22925581.963
        45.000          31.0004
 13  2  4  9 46  0.0000000  0 15G01R06G14G32R19R20G23G20R04G11R05R21
                                R14G19G31
 105871029.504 8  82496912.00947  20146590.104    20146589.548    20146595.056
        52.000          44.0004
 117460645.137 7  91358296.769 6  22012059.559    22012059.329    22012061.291
        44.000          39.000
 125875793.727 7  98085027.70643  23953375.248    23953374.749    23953379.847
        43.000          23.0004
 108231410.545 8  84336167.07446  20595754.260    20595753.483    20595756.788
        51.000          40.0004
 113053232.426 7  87930282.880 6  21134109.147    21134108.589    21134109.026
        47.000          41.000
 104632207.302 7  81380608.270 7  19566745.794    19566745.287    19566747.755
        44.000          46.000
 120753447.491 7  94093621.47945  22978605.314    22978604.953    22978606.842
        47.000          30.0004
 110597559.654 8  86179923.62046  21046015.183    21046014.884    21046017.724
        49.000          38.0004
 115928506.578 7  90166608.778 6  21648832.318    21648832.419    21648831.900
        46.000          40.000
 106773164.365 8  83199871.37646  20318261.740    20318261.647    20318263.337
        50.000          41.0004
 105346397.140 8  81936083.487 7  19707216.467    19707216.185    19707218.034
        49.000          46.000
 117329124.009 7  91255992.451 5  21925746.490    21925745.912    21925746.469
        42.000          32.000
 120884361.369 6  94021173.087 5  22677582.872                    22677590.313
        40.000          33.000
 124725451.724 7  97188659.91544  23734473.763    23734473.014    23734475.274
        44.000          28.0004
 120387513.235 7  93808464.89845  22908973.159    22908972.789    22908975.380
        46.000          31.0004
 13  2  4  9 46 30.0000000  0 15G01R06G14G32R19R20G23G20R04G11R05R21
                                R14G19G31
 105815774.040 8  82453855.80147  20136075.514    20136075.013    20136080.410
        52.000          45.0004
 117353614.177 7  91275050.495 6  21992001.164    21992001.045    21992003.942
        43.000          39.000
 125938779.946 7  98134107.77443  23965361.242    23965361.115    23965365.883
        43.000          23.0004
 108206669.635 8  84316888.43446  20591046.023    20591045.203    20591048.634
        51.000          40.0004
 113134757.429 8  87993691.140 6  21149349.583    21149349.510    21149349.604
        48.000          41.000
 104600253.792 7  81355755.519 7  19560769.880    19560769.833    19560771.837
        43.000          46.000
 120623751.931 7  93992560.05445  22953924.798    22953924.264    22953926.612
        46.000          30.0004
 110517204.306 8  86117309.08146  21030723.724    21030723.407    21030726.270
        50.000          38.0004
 115977422.871 7  90204654.724 6  21657967.258    21657967.925    21657967.119
        46.000          40.000
 106775837.143 8  83201954.03746  20318770.411    20318769.904    20318771.892
        50.000          41.0004
 105320287.068 8  81915775.652 7  19702332.054    19702332.242    19702333.342
        50.000          46.000
 117193870.035 6  91150794.954 5  21900470.014    21900470.285    21900471.211
        41.000          32.000
 120807949.920 6  93961742.023 5  22663248.612                    22663255.676
        40.000          33.000
 124797950.116 7  97245152.05144  23748269.627    23748268.329    23748271.334
        44.000          27.0004
 120300674.488 7  93740798.39645  22892448.316    22892447.885    22892450.286
        46.000          31.0004
 13  2  4  9 47  0.0000000  0 15G01R06G14G32R19R20G23G20R04G11R05R21
                                R14G19G31
 105760951.257 8  82411136.73647  20125642.937    20125642.430    20125647.949
        52.000          45.0004
 117246844.892 7  91192007.760 6  21971994.290    21971993.880    21971995.238
        45.000          39.000
 126001948.025 7  98183329.51043  23977381.249    23977380.827    23977386.123
        42.000          23.0004
 108182203.004 8  84297823.51846  20586390.001    20586389.410    20586392.686
        50.000          40.0004
 113216709.116 7  88057431.256 6  21164669.883    21164669.259    21164669.937
        47.000          41.000
 104569139.064 7  81331555.146 7  19554951.597    19554951.552    19554953.548
        44.000          46.000
 120494293.471 7  93891683.36145  22929289.833    22929289.356    22929291.420
        47.000          30.0004
 110437097.952 8  86054888.56246  21015480.313    21015479.310    21015482.318
        49.000          38.0004
 116026411.660 7  90242757.047 6  21667115.616    21667116.050    21667115.255
        46.000          40.000
 106779024.827 8  83204437.91146  20319377.068    20319376.660    20319378.426
        49.000          41.0004
 105294524.045 8  81895737.747 7  19697512.681    19697512.244    19697513.690
        49.000          46.000
 117059115.238 6  91045985.716 5  21875288.948    21875287.677    21875288.202
        40.000          32.000
 120732218.767 6  93902840.073 5  22649041.268                    22649048.092
        40.000          33.000
 124870547.819 7  97301721.57044  23762084.692    23762083.489    23762086.350
        43.000          27.0004
 120214265.711 7  93673466.94345  22876004.487    22876005.584    22876007.564
        47.000          32.0004
 13  2  4  9 47 30.0000000  0 15G01R06G14G32R19R20G23G20R04G11R05R21
                                R14G19G31
 105706561.892 8  82368755.40447  20115292.894    20115292.534    20115297.981
        53.000          45.0004
 117140337.708 7  91109168.881 6  21952034.151    21952034.498    21952035.622
        45.000          39.000
 126065294.852 6  98232690.54443  23989435.820    23989435.405    23989440.205
        41.000          23.0004
 108158009.064 8  84278971.08546  20581786.456    20581785.457    20581788.810
        50.000          40.0004
 113299082.892 7  88121499.655 7  21180068.559    21180066.683    21180068.868
        46.000          42.000
 104538862.960 7  81308007.038 7  19549290.540    19549289.799    19549291.967
        44.000          46.000
 120365073.378 7  93790992.41645  22904699.851    22904699.820    22904702.110
        47.000          30.0004
 110357240.169 8  85992661.72846  21000283.986    21000283.225    21000285.888
        49.000          38.0004
 116075470.921 7  90280914.174 6  21676276.856    21676276.840    21676276.778
        45.000          41.000
 106782726.159 8  83207322.03746  20320081.455    20320081.178    20320082.838
        48.000          41.0004
 105269105.629 8  81875967.857 7  19692757.552    19692757.371    19692758.617
        49.000          46.000
 116924863.304 6  90941567.597 5  21850199.308    21850199.625    21850199.965
        40.000          33.000
 120657170.040 6  93844468.860 5  22634962.052                    22634969.757
        38.000          32.000
 124943241.769 7  97358366.10044  23775918.467    23775916.862    23775920.419
        43.000          28.0004
 120128288.801 7  93606471.99345  22859643.631    22859644.288    22859646.859
        46.000          32.0004
 13  2  4  9 48  0.0000000  0 15G01R06G14G32R19R20G23G20R04G11R05R21
                                R14G19G31
 105652608.498 8  82326713.79447  20105026.141    20105025.537    20105030.873
        52.000          44.0004
 117034093.392 7  91026534.464 6  21932124.831    21932125.164    21932125.486
        45.000          39.000
 126128818.746 6  98282189.56043  24001524.718    24001523.569    24001529.205
        41.000          23.0004
 108134088.116 8  84260331.37246  20577234.259    20577233.843    20577236.928
        50.000          40.0004
 113381876.067 7  88185894.273 7  21195545.976    21195545.127    21195546.513
        47.000          42.000
 104509426.463 7  81285111.967 7  19543784.732    19543785.134    19543787.004
        44.000          46.000
 120236094.294 7  93690489.27345  22880156.059    22880156.191    22880157.652
        47.000          31.0004
 110277632.245 8  85930629.58746  20985135.023    20985134.785    20985137.263
        50.000          39.0004
 116124600.222 7  90319125.791 6  21685451.286    21685451.183    21685450.951
        44.000          40.000
 106786941.457 8  83210606.65446  20320883.600    20320883.133    20320884.823
        49.000          41.0004
 105244031.597 8  81856465.821 7  19688066.901    19688066.838    19688067.940
        49.000          46.000
 116791119.550 6  90837544.742 5  21825205.989    21825206.974    21825206.570
        41.000          33.000
 120582807.418 6  93786631.305 5  22621010.527                    22621019.301
        39.000          32.000
 125016030.430 7  97415084.41144  23789769.183    23789768.294    23789772.360
        44.000          28.0004
 120042747.501 7  93539816.47645  22843365.114    22843365.827    22843368.430
        45.000          31.0004
 13  2  4  9 48 30.0000000  0 15G01R06G14G32R19R20G23G20R04G11R05R21
                                R14G19G31
 105599091.269 8  82285012.04447  20094842.355    20094841.237    20094846.859
        52.000          45.0004
 116928110.543 7  90944103.427 6  21912263.418    21912262.972    21912264.767
        45.000          39.000
 126192516.387 7  98331823.97043  24013645.654    24013645.003    24013650.301
        42.000          22.0004
 108110438.047 8  84241902.72546  20572733.761    20572733.130    20572736.694
        50.000          41.0004
 113465083.245 7  88250610.889 7  21211100.836    21211100.490    21211101.608
        47.000          42.000
 104480828.608 7  81262869.185 7  19538437.565    19538437.161    19538439.219
        44.000          46.000
 120107356.810 7  93590174.38145  22855658.173    22855657.880    22855659.254
        47.000          30.0004
 110198273.160 8  85868791.34246  20970033.672    20970033.166    20970035.748
        50.000          38.0004
 116173797.374 7  90357390.180 6  21694639.547    21694638.693    21694638.538
        45.000          40.000
 106791668.772 8  83214290.24446  20321783.238    20321782.807    20321784.330
        50.000          41.0004
 105219299.296 8  81837229.570 7  19683440.279    19683440.076    19683441.405
        49.000          46.000
 116657886.175 7  90733918.830 5  21800308.233    21800308.796    21800309.082
        42.000          33.000
 120509132.536 6  93729328.670 5  22607190.725                    22607197.418
        39.000          32.000
 125088909.633 7  97471873.29444  23803637.850    23803637.057    23803640.897
        44.000          28.0004
 119957643.289 7  93473501.54945  22827170.772    22827171.112    22827173.186
        46.000          30.0004
 13  2  4  9 49  0.0000000  0 15G01R06G14G32R19R20G23G20R04G11R05R21
                                R14G19G31
 105546013.293 8  82243652.56947  20084741.667    20084740.940    20084746.433
        50.000          44.0004
 116822390.775 7  90861877.025 6  21892450.887    21892450.681    21892452.305
        43.000          39.000
 126256386.978 6  98381593.14543  24025799.904    24025799.293    24025804.538
        41.000          22.0004
 108087059.555 8  84223685.69346  20568285.184    20568284.068    20568287.763
        50.000          40.0004
 113548701.973 7  88315647.608 7  21226732.696    21226732.204    21226733.364
        47.000          42.000
 104453071.232 7  81241280.085 7  19533246.813    19533246.371    19533248.333
        44.000          46.000
 119978864.519 8  93490050.57145  22831206.697    22831206.485    22831208.043
        48.000          30.0004
 110119164.736 8  85807148.41646  20954979.664    20954979.389    20954982.221
        50.000          39.0004
 116223062.426 7  90395707.358 6  21703839.129    21703839.178    21703838.466
        46.000          40.000
 106796909.259 8  83218373.71246  20322780.432    20322780.190    20322781.670
        49.000          41.0004
 105194908.626 8  81818259.051 7  19678877.279    19678877.006    19678878.603
        50.000          46.000
 116525169.639 7  90630694.852 5  21775508.169    21775508.022    21775507.798
        43.000          32.000
 120436149.606 6  93672564.229 5  22593499.373                    22593507.091
        39.000          32.000
 125161878.448 7  97528731.99644  23817523.481    23817523.195    23817526.407
        45.000          28.0004
 119872980.425 7  93407530.50245  22811059.219    22811059.942    22811062.992
        47.000          31.0004
 13  2  4  9 49 30.0000000  0 15G01R06G14G32R19R20G23G20R04G11R05R21
                                R14G19G31
 105493376.286 8  82202636.70247  20074725.244    20074724.871    20074730.063
        53.000          45.0004
 116716934.250 7  90779855.353 6  21872687.807    21872688.164    21872690.742
        44.000          40.000
 126320428.380 7  98431495.41443  24037985.893    24037986.788    24037990.825
        42.000          22.0004
 108063952.060 8  84205679.83946  20563888.109    20563887.083    20563890.383
        50.000          40.0004
 113632728.606 7  88381001.569 6  21242440.384    21242440.100    21242441.051
        47.000          41.000
 104426154.582 7  81220344.882 7  19528212.872    19528212.704    19528214.844
        43.000          46.000
 119850619.429 7  93390119.39045  22806802.342    22806802.105    22806803.950
        47.000          30.0004
 110040307.312 8  85745701.08046  20939973.566    20939973.082    20939976.266
        50.000          39.0004
 116272394.378 7  90434076.561 6  21713051.457    21713051.650    21713051.135
        46.000          39.000
 106802662.057 8  83222856.37746  20323875.365    20323874.766    20323876.510
        49.000          41.0004
 105170858.783 8  81799553.605 7  19674378.343    19674378.132    19674379.895
        49.000          47.000
 116392973.701 7  90527875.805 5  21750803.637    21750803.819    21750803.733
        42.000          32.000
 120363861.555 6  93616340.226 5  22579938.327                    22579944.516
        38.000          32.000
 125234934.539 7  97585658.71644  23831426.072    23831425.595    23831429.225
        44.000          28.0004
 119788761.701 7  93341905.54145  22795033.681    22795032.977    22795037.072
        46.000          31.0004
 13  2  4  9 50  0.0000000  0 16G01R06G14G32R19R15R20G23G20R04G11R05
                                R21R14G19G31
 105441179.587 8  82161963.93747  20064792.586    20064792.174    20064797.437
        53.000          45.0004
 116611738.562 7  90698036.565 6  21852974.425    21852974.462    21852976.328
        44.000          40.000
 126384636.161 6  98481527.31143  24050205.854    24050205.086    24050209.173
        41.000          21.0004
 108041112.610 8  84187882.86146  20559541.738    20559540.916    20559544.085
        51.000          40.0004
 113717157.176 8  88446668.152 6  21258223.844    21258223.518    21258223.435
        48.000          41.000
 125143757.551 6  97334039.638 5  23418938.514    23418937.340    23418946.526
        39.000          35.000
 104400076.533 7  81200061.936 7  19523337.011    19523336.202    19523338.388
        44.000          46.000
 119722621.022 7  93290380.41345  22782444.773    22782445.007    22782446.915
        46.000          31.0004
 109961698.909 8  85684447.77046  20925014.669    20925014.394    20925017.291
        51.000          39.0004
 116321790.030 7  90472495.302 6  21722276.528    21722275.833    21722275.354
        45.000          39.000
 106808924.832 8  83227736.43846  20325067.072    20325066.596    20325068.542
        49.000          41.0004
 105147145.816 8  81781110.184 7  19669942.164    19669941.917    19669943.896
        49.000          46.000
 116261300.892 7  90425463.649 5  21726197.475    21726197.625    21726197.700
        42.000          32.000
 120292269.223 6  93560657.372 5  22566507.580                    22566515.324
        39.000          32.000
 125308073.095 7  97642649.68144  23845343.311    23845343.037    23845347.576
        43.000          27.0004
 119704987.430 7  93276626.89345  22779091.569    22779091.186    22779095.168
        45.000          31.0004
 13  2  4  9 50 30.0000000  0 16G01R06G14G32R19R15R20G23G20R04G11R05
                                R21R14G19G31
 105389424.728 8  82121635.45447  20054943.834    20054943.290    20054948.825
        51.000          44.0004
 116506803.965 7  90616420.845 6  21833308.643    21833309.171    21833311.391
        45.000          40.000
 126449008.054 6  98531687.09543  24062454.751    24062454.533    24062459.074
        41.000          21.0004
 108018540.479 8  84170294.17846  20555246.573    20555245.636    20555248.797
        50.000          41.0004
 113801983.448 7  88512644.034 6  21274080.647    21274079.635    21274081.568
        46.000          41.000
 124998623.085 6  97221157.529 5  23391778.200    23391779.738    23391785.363
        40.000          35.000
 104374837.289 7  81180431.405 7  19518616.772    19518616.265    19518618.421
        43.000          46.000
 119594871.495 8  93190835.37845  22758135.355    22758135.859    22758136.860
        48.000          32.0004
 109883340.640 8  85623389.38646  20910103.896    20910103.477    20910106.173
        51.000          39.0004
 116371248.009 7  90510962.549 6  21731511.867    21731511.668    21731511.760
        45.000          40.000
 106815696.569 8  83233013.08846  20326355.522    20326355.240    20326357.103
        50.000          40.0004
 105123768.570 8  81762927.882 7  19665569.278    19665568.605    19665570.257
        49.000          45.000
 116130154.933 7  90323461.281 5  21701689.658    21701689.689    21701689.995
        42.000          32.000
 120221375.262 6  93505517.647 5  22553206.604                    22553214.547
        39.000          32.000
 125381291.636 7  97699702.96744  23859276.496    23859275.603    23859280.308
        43.000          27.0004
 119621660.714 7  93211696.99045  22763235.597    22763234.996    22763238.339
        44.000          31.0004
 13  2  4  9 51  0.0000000  0 16G01R06G14G32R19R15R20G23G20R04G11R05
                                R21R14G19G31
 105338114.222 8  82081653.22247  20045179.998    20045179.554    20045184.754
        51.000          44.0004
 116402131.667 7  90535009.123 6  21813694.511    21813694.822    21813695.560
        45.000          40.000
 126513542.691 7  98581973.70743  24074735.996    24074735.981    24074740.124
        42.000          20.0004
 107996235.935 8  84152913.99846  20551002.165    20551001.347    20551004.451
        49.000          40.0004
 113887204.638 7  88578927.077 6  21290012.473    21290011.010    21290012.235
        47.000          41.000
 124853627.115 6  97108383.193 5  23364644.280    23364644.742    23364648.480
        38.000          35.000
 104350437.855 7  81161454.043 7  19514054.306    19514053.440    19514055.743
        44.000          46.000
 119467373.841 8  93091486.59645  22733873.104    22733873.855    22733874.739
        48.000          32.0004
 109805232.716 8  85562526.06046  20895240.461    20895240.280    20895242.544
        51.000          38.0004
 116420768.237 7  90549478.208 6  21740757.715    21740759.062    21740759.734
        44.000          40.000
 106822977.641 8  83238686.62146  20327741.476    20327741.060    20327742.488
        51.000          41.0004
 105100726.880 8  81745006.542 7  19661258.945    19661258.367    19661260.201
        49.000          46.000
 115999541.113 7  90221872.772 5  21677280.905    21677281.112    21677281.228
        43.000          32.000
 120151182.930 6  93450923.641 5  22540039.048                    22540047.102
        40.000          33.000
 125454588.485 7  97756817.26144  23873225.006    23873224.129    23873228.080
        42.000          27.0004
 119538784.754 7  93147118.31245  22747465.261    22747465.017    22747467.313
        46.000          31.0004
 13  2  4  9 51 30.0000000  0 16G01R06G14G32R19R15R20G23G20R04G11R05
                                R21R14G19G31
 105287249.470 8  82042018.33547  20035500.665    20035499.812    20035505.520
        51.000          44.0004
 116297721.595 7  90453801.383 6  21794128.247    21794128.164    21794129.318
        46.000          40.000
 126578237.809 6  98632385.33743  24087047.438    24087046.852    24087051.166
        41.000          19.0004
 107974198.132 8  84135741.67246  20546808.253    20546807.502    20546810.786
        51.000          40.0004
 113972816.637 7  88645514.098 6  21306015.862    21306015.225    21306016.906
        46.000          41.000
 124708774.137 6  96995720.045 5  23337536.101    23337537.108    23337539.243
        40.000          34.000
 104326878.012 7  81143129.694 7  19509647.754    19509647.390    19509649.612
        43.000          46.000
 119340129.469 8  92992335.17945  22709659.162    22709658.504    22709660.909
        48.000          31.0004
 109727375.517 8  85501858.11846  20880424.894    20880424.730    20880426.809
        51.000          39.0004
 116470349.547 7  90588041.365 6  21750018.549    21750018.359    21750018.738
        45.000          40.000
 106830767.575 8  83244756.67246  20329223.796    20329223.440    20329225.007
        50.000          41.0004
 105078019.308 8  81727345.083 7  19657010.415    19657010.116    19657012.092
        49.000          46.000
 115869463.468 7  90120701.304 5  21652972.658    21652972.850    21652973.279
        42.000          32.000
 120081695.259 6  93396877.680 5  22527004.637                    22527012.853
        39.000          33.000
 125527961.359 7  97813990.81344  23887187.583    23887186.276    23887190.548
        43.000          27.0004
 119456361.958 8  93082892.75945  22731780.582    22731780.983    22731782.731
        48.000          32.0004
 13  2  4  9 52  0.0000000  0 16G01R06G14G32R19R15R20G23G20R04G11R05
                                R21R14G19G31
 105236832.231 8  82002732.16047  20025906.872    20025906.334    20025911.343
        53.000          45.0004
 116193573.494 7  90372797.368 6  21774609.597    21774610.017    21774612.081
        45.000          40.000
 126643091.874 6  98682920.87043  24099388.504    24099388.446    24099392.615
        41.000          18.0004
 107952426.546 8  84118776.79146  20542665.337    20542664.577    20542667.940
        49.000          40.0004
 114058816.027 7  88712402.425 6  21322093.185    21322092.995    21322093.825
        47.000          41.000
 124564069.664 7  96883172.339 5  23310456.937    23310458.681    23310462.743
        42.000          34.000
 104304158.174 7  81125458.678 7  19505399.707    19505399.284    19505400.885
        44.000          46.000
 119213140.694 7  92893382.94045  22685494.132    22685493.581    22685495.700
        46.000          31.0004
 109649770.022 8  85441386.31146  20865657.060    20865656.258    20865658.910
        50.000          38.0004
 116519991.004 7  90626651.304 6  21759289.149    21759289.129    21759288.195
        45.000          39.000
 106839066.226 8  83251223.11846  20330803.254    20330802.576    20330804.147
        50.000          41.0004
 105055644.438 8  81709942.385 7  19652825.118    19652824.990    19652826.699
        50.000          46.000
 115739926.482 7  90019950.379 5  21628766.047    21628765.637    21628766.716
        43.000          32.000
 120012914.707 6  93343381.704 5  22514100.433                    22514108.930
        39.000          33.000
 125601407.900 7  97871221.75344  23901164.268    23901162.584    23901166.572
        43.000          27.0004
 119374395.681 7  93019022.91845  22716183.178    22716183.560    22716185.270
        47.000          32.0004
 13  2  4  9 52 30.0000000  0 16G01R06G14G32R19R15R20G23G20R04G11R05
                                R21R14G19G31
 106762284.446 9  83191396.21047  20316190.703    20316190.305    20316195.300
        54.000          44.0004
 117689440.132 7  91536249.249 6  22054935.170    22054934.404    22054937.536
        44.000          41.000
 128283518.479 6  99961175.19443  24411552.219    24411550.240    24411556.062
        40.000          19.0004
 109506339.916 8  85329618.37246  20838365.319    20838364.654    20838367.889
        53.000          40.0004
 115748881.958 7  90026898.056 6  21638033.248    21638031.988    21638034.422
        46.000          41.000
 126021521.641 6  98016746.299 5  23583198.940    23583200.059    23583203.626
        41.000          35.000
 105885402.576 7  82355315.408 7  19801100.407    19801099.806    19801101.860
        43.000          46.000
 120661832.514 8  94022233.74445  22961171.294    22961170.965    22961172.473
        48.000          32.0004
 111147837.601 8  86608711.71546  21150729.744    21150729.273    21150731.624
        50.000          38.0004
 118175063.594 7  91913929.906 6  22068360.679    22068361.446    22068361.215
        44.000          39.000
 108423290.674 8  84485683.70846  20632270.866    20632270.604    20632272.233
        52.000          41.0004
 106636163.256 8  82939234.783 7  19948493.850    19948493.749    19948495.692
        50.000          46.000
 117215187.271 7  91167375.465 5  21904453.346    21904453.116    21904454.562
        43.000          33.000
 121542907.698 6  94533376.277 5  22801123.477                    22801131.066
        40.000          33.000
 127250341.490 7  99156104.93444  24214945.445    24214944.783    24214947.921
        44.000          27.0004
 120868309.966 7  94183111.96245  23000464.898    23000465.502    23000467.247
        47.000          31.0004
 13  2  4  9 53  0.0000000  0 16G01R06G14G32R19R15R20G23G20R04G11R05
                                R21R14G19G31
 106712767.564 8  83152811.61047  20306768.036    20306767.489    20306772.683
        53.000          45.0004
 117585818.128 7  91455654.431 6  22035516.110    22035515.612    22035517.848
        44.000          40.000
 128348683.406 6 100011952.96243  24423951.547    24423951.686    24423956.871
        40.000          18.0004
 109485099.423 8  85313067.33546  20834323.517    20834322.526    20834325.944
        51.000          40.0004
 115835644.592 7  90094380.027 6  21654252.997    21654250.987    21654253.763
        46.000          41.000
 125877128.584 6  97904440.825 5  23556177.675    23556178.035    23556184.291
        40.000          34.000
 105864362.871 7  82338951.184 7  19797165.607    19797164.873    19797167.268
        43.000          46.000
 120535361.328 8  93923684.82645  22937104.644    22937104.639    22937105.384
        49.000          32.0004
 111070736.999 8  86548633.33246  21136057.735    21136057.471    21136060.075
        49.000          38.0004
 118224822.891 7  91952631.504 6  22077652.833    22077653.315    22077653.811
        43.000          39.000
 108432604.103 8  84492940.90846  20634043.491    20634043.191    20634044.582
        51.000          41.0004
 106614451.309 8  82922347.695 7  19944432.179    19944431.794    19944433.942
        50.000          46.000
 117086744.718 7  91067475.737 5  21880450.863    21880450.242    21880451.557
        42.000          33.000
 121475550.369 6  94480987.254 5  22788487.856                    22788495.878
        40.000          33.000
 127323928.429 7  99213445.27044  24228948.494    24228947.671    24228950.990
        42.000          26.0004
 120787265.110 7  94119960.11745  22985042.616    22985042.701    22985045.534
        46.000          32.0004
 13  2  4  9 53 30.0000000  0 16G01R06G14G32R19R15R20G23G20R04G11R05
                                R21R14G19G31
 106663702.581 8  83114579.14247  20297431.119    20297430.634    20297435.761
        52.000          44.0004
 117482458.232 7  91375263.480 6  22016146.424    22016146.521    22016148.050
        44.000          40.000
 128414000.074 6 100062848.97142  24436381.263    24436381.581    24436385.212
        38.000          15.0004
 109464122.916 8  85296722.00446  20830331.410    20830330.682    20830334.158
        52.000          40.0004
 115922782.556 7  90162153.904 6  21670542.250    21670542.370    21670543.285
        46.000          41.000
 125732897.910 6  97792261.537 5  23529187.197    23529187.633    23529192.622
        40.000          34.000
 105844162.506 7  82323239.774 7  19793387.388    19793386.764    19793389.621
        43.000          46.000
 120409151.042 8  93825339.20645  22913087.359    22913087.907    22913087.972
        49.000          32.0004
 110993888.693 8  86488751.54146  21121434.034    21121433.337    21121436.386
        48.000          38.0004
 118274638.966 7  91991377.275 6  22086955.930    22086957.155    22086957.345
        44.000          40.000
 108442423.748 8  84500592.55046  20635912.166    20635911.221    20635913.220
        49.000          40.0004
 106593067.887 8  82905716.130 7  19940432.105    19940431.392    19940433.635
        49.000          46.000
 116958855.130 7  90968006.094 5  21856551.599    21856551.542    21856552.170
        42.000          33.000
 121408908.054 6  94429154.334 5  22775984.321                    22775993.181
        38.000          33.000
 127397581.130 7  99270836.87044  24242964.677    24242962.785    24242966.672
        43.000          26.0004
 120706684.217 7  94057169.79745  22969708.492    22969708.592    22969711.831
        47.000          32.0004
 13  2  4  9 54  0.0000000  0 16G01R06G14G32R19R15R20G23G20R04G11R05
                                R21R14G19G31
 106615090.104 8  83076699.27147  20288180.614    20288180.331    20288185.057
        52.000          45.0004
 117379359.840 7  91295075.916 6  21996826.342    21996825.510    21996828.313
        44.000          40.000
 128479465.711 6 100113860.98442  24448838.297    24448838.491    24448843.824
        37.000          16.0004
 109443408.744 8  85280581.08346  20826390.054    20826389.299    20826392.326
        49.000          41.0004
 116010291.068 7  90230215.997 6  21686901.140    21686899.820    21686901.845
        46.000          41.000
 125588833.527 6  97680211.656 5  23502226.991    23502226.863    23502233.106
        40.000          34.000
 105824800.436 7  82308180.360 7  19789766.326    19789765.718    19789768.652
        43.000          46.000
 120283203.003 8  93727197.92345  22889119.959    22889120.430    22889120.872
        49.000          32.0004
 110917292.187 8  86429065.95146  21106858.188    21106857.585    21106860.198
        49.000          38.0004
 118324510.020 7  92030165.793 6  22096269.925    22096269.151    22096270.904
        43.000          40.000
 108452747.929 8  84508637.33946  20637876.495    20637875.943    20637877.557
        51.000          40.0004
 106572011.382 8  82889338.829 7  19936492.671    19936492.526    19936494.812
        50.000          46.000
 116831521.824 7  90868969.104 5  21832756.916    21832756.640    21832756.571
        42.000          33.000
 121342982.584 6  94377878.951 5  22763615.920                    22763625.953
        39.000          32.000
 127471296.451 7  99328277.23944  24256991.236    24256990.446    24256993.923
        42.000          25.0004
 120626569.262 7  93994742.51945  22954463.215    22954463.503    22954466.561
        46.000          32.0004
 13  2  4  9 54 30.0000000  0 16G01R06G14G32R19R15R20G23G20R04G11R05
                                R21R14G19G31
 106566934.532 8  83039175.43047  20279016.808    20279016.337    20279021.337
        53.000          46.0004
 117276525.829 7  91215093.978 6  21977555.107    21977554.909    21977556.498
        45.000          40.000
 128545080.814 6 100164989.53142  24461324.723    24461325.883    24461329.648
        38.000          15.0004
 109422959.221 8  85264646.38746  20822498.739    20822497.972    20822500.895
        51.000          40.0004
 116098169.049 7  90298565.436 6  21703328.308    21703327.522    21703329.852
        45.000          41.000
 125444943.405 6  97568297.249 5  23475299.153    23475298.558    23475304.908
        39.000          34.000
 105806279.538 7  82293775.194 7  19786303.098    19786303.094    19786305.394
        43.000          46.000
 120157521.767 7  93629264.55245  22865203.738    22865203.594    22865204.647
        47.000          32.0004
 110840950.773 8  86369579.14746  21092331.154    21092330.569    21092333.182
        49.000          38.0004
 118374437.968 7  92068998.591 6  22105593.051    22105593.334    22105594.144
        44.000          40.000
 108463578.888 8  84517077.02346  20639937.551    20639937.454    20639938.728
        50.000          41.0004
 106551283.314 8  82873216.981 7  19932614.857    19932615.138    19932617.034
        49.000          46.000
 116704751.881 6  90770370.328 5  21809066.976    21809066.825    21809066.754
        41.000          34.000
 121277778.943 6  94327165.015 5  22751386.439                    22751394.229
        40.000          32.000
 127545074.638 7  99385766.58944  24271031.339    24271029.986    24271033.716
        42.000          25.0004
 120546925.288 7  93932682.25645  22939307.749    22939307.359    22939310.838
        47.000          32.0004
 13  2  4  9 55  0.0000000  0 16G01R06G14G32R19R15R20G23G20R04G11R05
                                R21R14G19G31
 106519235.727 8  83002007.51547  20269940.271    20269939.466    20269944.632
        51.000          45.0004
 117173954.784 7  91135316.545 6  21958332.644    21958332.712    21958334.446
        45.000          40.000
 128610841.530 6 100216231.47842  24473839.090    24473840.630    24473844.626
        37.000          14.0004
 109402771.956 8  85248916.04646  20818657.333    20818656.481    20818659.315
        50.000          40.0004
 116186410.955 7  90367197.934 6  21719824.942    21719824.963    21719826.180
        47.000          40.000
 125301230.745 6  97456520.849 5  23448405.504    23448404.232    23448412.753
        38.000          35.000
 105788597.658 7  82280022.605 7  19782996.828    19782996.476    19782998.439
        43.000          46.000
 120032107.754 7  93531539.41245  22841338.274    22841337.706    22841339.679
        47.000          32.0004
 110764863.383 8  86310290.29246  21077852.218    21077851.888    21077854.510
        48.000          38.0004
 118424419.959 7  92107873.378 6  22114927.748    22114927.387    22114927.399
        44.000          39.000
 108474913.876 8  84525909.45346  20642094.754    20642094.541    20642095.636
        50.000          41.0004
 106530880.415 8  82857348.038 7  19928798.455    19928798.240    19928800.045
        50.000          46.000
 116578547.908 7  90672211.663 5  21785482.728    21785481.944    21785482.649
        42.000          32.000
 121213298.071 6  94277013.233 5  22739290.673                    22739297.259
        39.000          32.000
 127618911.905 7  99443301.96144  24285082.214    24285080.891    24285084.305
        43.000          25.0004
 120467753.696 7  93870990.09445  22924242.009    22924242.454    22924244.499
        46.000          33.0004
 13  2  4  9 55 30.0000000  0 16G01R06G14G32R19R15R20G23G20R04G11R05
                                R21R14G19G31
 106471994.591 9  82965196.22847  20260950.418    20260949.855    20260955.213
        54.000          44.0004
 117071645.478 7  91055742.708 6  21939160.227    21939160.093    21939162.184
        45.000          40.000
 128676744.902 6 100267584.63542  24486381.772    24486380.081    24486384.481
        36.000          13.0004
 109382845.723 8  85233389.11246  20814865.303    20814864.545    20814867.569
        52.000          40.0004
 116275012.253 7  90436109.965 6  21736388.539    21736388.715    21736388.957
        46.000          41.000
 125157699.531 6  97344885.586 5  23421544.047    23421544.020    23421552.419
        39.000          35.000
 105771753.793 7  82266921.804 7  19779846.711    19779846.888    19779848.877
        44.000          45.000
 119906961.977 7  93434023.29045  22817523.526    22817523.124    22817525.387
        46.000          32.0004
 110689029.453 8  86251198.92046  21063421.677    21063421.233    21063423.672
        49.000          39.0004
 118474454.553 7  92146789.092 6  22124271.065    22124271.237    22124271.226
        43.000          39.000
 108486751.807 8  84535133.79646  20644347.124    20644346.853    20644348.384
        51.000          40.0004
 106510801.075 8  82841730.753 7  19925042.765    19925042.549    19925043.735
        50.000          46.000
 116452913.136 6  90574495.761 5  21762004.531    21762003.944    21762004.798
        41.000          33.000
 121149541.994 6  94227425.160 5  22727329.788                    22727336.539
        38.000          32.000
 127692804.838 6  99500880.73144  24299144.088    24299142.727    24299146.133
        41.000          25.0004
 120389056.197 8  93809667.34945  22909265.484    22909266.405    22909269.163
        48.000          32.0004
 13  2  4  9 56  0.0000000  0 16G01R06G14G32R19R15R20G23G20R04G11R05
                                R21R14G19G31
 106425214.075 8  82928743.86747  20252048.254    20252047.964    20252053.354
        53.000          45.0004
 116969600.085 7  90976374.122 6  21920037.256    21920036.807    21920039.636
        45.000          41.000
 128742790.870 5 100319048.89141  24498949.334    24498947.784    24498952.336
        34.000           9.0004
 109363181.256 8  85218066.14646  20811123.344    20811122.645    20811125.581
        51.000          40.0004
 116363970.431 7  90505299.548 6  21753018.599    21753017.095    21753019.004
        45.000          40.000
 125014356.377 6  97233396.561 5  23394720.525    23394719.528    23394728.187
        39.000          35.000
 105755749.520 7  82254474.004 7  19776854.100    19776853.670    19776856.148
        44.000          45.000
 119782088.002 7  93336718.93745  22793760.714    22793760.714    22793762.338
        47.000          32.0004
 110613450.902 8  86192306.54446  21049039.370    21049039.064    21049041.312
        48.000          38.0004
 118524542.178 7  92185746.067 6  22133624.785    22133624.122    22133625.059
        43.000          39.000
 108499093.643 8  84544750.78246  20646695.635    20646695.622    20646697.049
        49.000          41.0004
 106491045.416 8  82826365.220 7  19921346.848    19921346.366    19921347.947
        50.000          46.000
 116327853.445 7  90477227.150 5  21738634.542    21738633.589    21738634.699
        42.000          34.000
 121086514.266 6  94178403.574 5  22715505.702                    22715513.634
        40.000          33.000
 127766752.860 6  99558502.42144  24313216.366    24313214.527    24313218.134
        41.000          25.0004
 120310836.876 7  93748717.21945  22894381.583    22894381.670    22894384.788
        46.000          32.0004
 13  2  4  9 56 30.0000000  0 16G01R06G14G32R19R15R20G23G20R04G11R05
                                R21R14G19G31
 106378893.909 8  82892650.22647  20243234.146    20243233.669    20243238.886
        51.000          46.0004
 116867816.917 7  90897209.485 6  21900963.232    21900962.769    21900964.610
        45.000          40.000
 128808975.253 5                  24511544.143
        31.000
 109343776.192 8  85202945.31046  20807430.804    20807430.292    20807432.908
        50.000          40.0004
 116453279.798 7  90574762.290 6  21769713.514    21769713.144    21769714.033
        46.000          40.000
 124871204.370 6  97122056.222 5  23367932.268    23367931.667    23367937.760
        41.000          34.000
 105740582.143 7  82242677.132 7  19774017.499    19774017.335    19774019.328
        43.000          45.000
 119657486.038 7  93239626.55445  22770050.114    22770049.885    22770051.369
        47.000          32.0004
 110538126.375 8  86133612.11146  21034705.430    21034704.964    21034707.150
        50.000          38.0004
 118574680.650 7  92224742.581 6  22142987.623    22142987.643    22142988.595
        43.000          40.000
 108511936.533 8  84554758.20846  20649139.392    20649139.321    20649141.028
        50.000          41.0004
 106471610.645 8  82811249.270 7  19917711.106    19917710.724    19917712.442
        50.000          45.000
 116203370.962 7  90380407.489 5  21715371.225    21715371.546    21715372.157
        43.000          34.000
 121024215.538 6  94129948.994 5  22703819.666                    22703826.498
        40.000          33.000
 127840751.488 7  99616163.52344  24327297.888    24327296.402    24327300.117
        43.000          25.0004
 120233096.278 7  93688140.10545  22879588.270    22879588.297    22879590.995
        45.000          32.0004
 13  2  4  9 57  0.0000000  0 16G01R06G14G32R19R15R20G23G20R04G11R05
                                R21R14G19G31
 106333036.472 8  82856917.15447  20234507.671    20234507.507    20234512.349
        53.000          46.0004
 116766296.557 7  90818249.229 6  21881938.366    21881937.984    21881939.149
        46.000          40.000
 128875296.911 4                  24524168.372
        29.000
 109324630.922 8  85188026.90346  20803787.718    20803787.144    20803789.857
        50.000          40.0004
 116542937.633 7  90644496.048 6  21786474.286    21786473.280    21786474.774
        45.000          40.000
 124728249.225 6  97010868.968 5  23341179.219    23341179.395    23341185.961
        41.000          34.000
 105726252.428 7  82231531.756 7  19771337.699    19771337.658    19771339.797
        43.000          45.000
 119533158.592 7  93142748.07045  22746391.022    22746390.531    22746392.818
        46.000          32.0004
 110463057.186 8  86075116.64846  21020420.436    21020419.856    21020422.144
        49.000          38.0004
 118624869.508 7  92263778.300 6  22152360.236    22152360.630    22152360.876
        44.000          39.000
 108525280.583 8  84565156.14246  20651678.814    20651678.171    20651680.379
        49.000          40.0004
 106452496.434 8  82796382.657 7  19914135.124    19914134.624    19914136.779
        49.000          46.000
 116079470.810 7  90284040.697 5  21692217.944    21692217.881    21692217.883
        43.000          33.000
 120962649.419 6  94082064.198 5  22692268.866                    22692276.752
        39.000          33.000
 127914799.356 7  99673863.02344  24341388.541    24341387.819    24341390.974
        43.000          25.0004
 120155838.512 7  93627939.24845  22864886.569    22864886.570    22864889.098
        47.000          32.0004
 13  2  4  9 57 30.0000000  0 16G01R06G14G32R19R15R20G23G20R04G11R05
                                R21R14G19G31
 106287641.734 8  82821544.62647  20225869.313    20225868.960    20225873.777
        53.000          45.0004
 116665037.667 7  90739492.356 6  21862961.805    21862962.551    21862963.594
        46.000          40.000
 128941752.184 4                  24536805.401
        27.000
 109305743.239 8  85173309.22446  20800193.134    20800192.582    20800195.673
        49.000          40.0004
 116632938.249 7  90714496.427 6  21803299.140    21803298.455    21803299.232
        45.000          39.000
 124585494.204 6  96899837.398 5  23314463.649    23314464.798    23314470.645
        39.000          34.000
 105712758.376 7  82221036.360 7  19768815.442    19768813.758    19768816.799
        43.000          46.000
 119409106.286 7  93046083.98845  22722784.744    22722783.729    22722786.167
        47.000          32.0004
 110388242.285 8  86016819.34146  21006183.728    21006182.997    21006185.523
        50.000          38.0004
 118675106.277 7  92302851.254 6  22161741.539    22161742.496    22161742.033
        45.000          39.000
 108539123.590 8  84575942.87646  20654312.972    20654312.796    20654314.778
        50.000          40.0004
 106433699.817 8  82781763.049 7  19910618.515    19910618.579    19910620.479
        49.000          46.000
 115956155.717 7  90188129.009 5  21669173.344    21669173.334    21669173.890
        44.000          34.000
 120901816.585 6  94034749.752 5  22680856.724                    22680864.947
        39.000          33.000
 127988892.588 7  99731597.83744  24355487.887    24355487.914    24355491.099
        43.000          25.0004
 120079063.880 8  93568114.86045  22850276.983    22850277.229    22850279.349
        48.000          33.0004
 13  2  4  9 58  0.0000000  0 16G01R06G14G32R19R15R20G23G20R04G11R05
                                R21R14G19G31
 106242713.745 8  82786535.79547  20217319.856    20217319.247    20217324.212
        53.000          44.0004
 116564042.793 7  90660940.831 6  21844035.865    21844035.645    21844036.776
        47.000          41.000
 129008341.594 4                  24549482.840
        25.000
 109287115.061 8  85158793.74246  20796648.207    20796647.527    20796650.664
        50.000          39.0004
 116723280.454 7  90784762.501 6  21820187.018    21820187.238    21820188.078
        45.000          40.000
 124442947.031 6  96788967.482 5  23287789.214    23287788.613    23287794.144
        40.000          33.000
 105700102.149 7  82211192.601 7  19766448.422    19766447.405    19766449.834
        44.000          46.000
 119285333.337 7  92949637.58245  22699232.009    22699231.274    22699232.672
        47.000          33.0004
 110313684.316 8  85958722.23646  20991995.660    20991995.269    20991997.370
        49.000          39.0004
 118725392.771 7  92341962.890 6  22171131.889    22171131.769    22171132.122
        44.000          39.000
 108553467.325 8  84587119.78446  20657042.693    20657043.063    20657044.306
        51.000          41.0004
 106415222.226 8  82767391.590 7  19907162.467    19907162.324    19907163.881
        50.000          46.000
 115833432.259 7  90092677.469 5  21646238.803    21646239.183    21646239.963
        44.000          34.000
 120841721.703 6  93988009.268 5  22669581.463                    22669591.048
        39.000          33.000
 128063031.247 7  99789368.05744  24369596.424    24369596.714    24369599.723
        42.000          25.0004
 120002777.990 7  93508671.32045  22835760.479    22835760.396    22835762.778
        47.000          33.0004
 13  2  4  9 58 30.0000000  0 15G01R06G32R19R15R20G23G20R04G11R05R21
                                R14G19G31
 106198252.613 9  82751890.74947  20208859.049    20208858.488    20208863.543
        54.000          45.0004
 116463311.101 7  90582594.032 6  21825158.995    21825159.441    21825160.455
        47.000          41.000
 109268744.459 8  85144478.96346  20793152.306    20793151.670    20793154.878
        51.000          40.0004
 116813958.910 7  90855290.066 6  21837138.198    21837137.631    21837139.867
        44.000          40.000
 124300611.224 6  96678261.947 5  23261152.535    23261153.968    23261155.643
        41.000          33.000
 105688281.892 7  82201999.050 7  19764237.021    19764237.075    19764239.431
        43.000          46.000
 119161840.477 8  92853409.43845  22675731.783    22675731.542    22675732.991
        48.000          33.0004
 110239383.049 8  85900825.15346  20977856.012    20977856.348    20977858.398
        50.000          39.0004
 118775726.850 7  92381111.538 6  22180531.377    22180532.125    22180531.974
        45.000          39.000
 108568309.811 8  84598685.32646  20659867.408    20659867.355    20659868.775
        48.000          41.0004
 106397061.303 8  82753266.411 7  19903765.066    19903764.658    19903766.456
        49.000          46.000
 115711302.816 7  89997687.947 5  21623415.830    21623415.810    21623416.447
        43.000          34.000
 120782365.772 6  93941843.513 5  22658446.154                    22658455.644
        39.000          32.000
 128137211.739 7  99847170.86244  24383712.945    24383712.173    24383716.014
        42.000          25.0004
 119926981.650 7  93449609.24845  22821336.210    22821336.722    22821339.359
        46.000          33.0004
 13  2  4  9 59  0.0000000  0 15G01R06G32R19R15R20G23G20R04G11R05R21
                                R14G19G31
 106154259.302 8  82717610.24547  20200487.376    20200486.725    20200492.012
        52.000          45.0004
 116362841.827 7  90504451.320 7  21806331.059    21806330.877    21806332.490
        46.000          42.000
 109250630.356 8  85130364.06146  20789705.570    20789704.715    20789707.928
        50.000          40.0004
 116904969.281 7  90926075.836 6  21854151.383    21854150.527    21854153.442
        44.000          40.000
 124158491.376 6  96567724.394 5  23234557.032    23234557.112    23234559.790
        40.000          33.000
 105677296.460 7  82193454.774 7  19762183.597    19762182.799    19762185.196
        43.000          46.000
 119038628.990 8  92757400.55145  22652285.103    22652284.827    22652286.516
        48.000          33.0004
 110165338.044 8  85843127.75446  20963766.323    20963766.063    20963768.458
        50.000          39.0004
 118826107.224 7  92420296.202 6  22189940.261    22189940.313    22189940.478
        44.000          40.000
 108583649.690 8  84610638.45746  20662786.790    20662786.331    20662787.922
        51.000          40.0004
 106379215.086 8  82739386.023 7  19900426.194    19900425.874    19900427.969
        49.000          46.000
 115589771.258 7  89903163.428 5  21600705.691    21600704.983    21600705.815
        44.000          33.000
 120723750.586 6  93896253.904 5  22647451.044                    22647459.858
        39.000          32.000
 128211431.174 7  99905004.03144  24397835.636    24397835.426    24397839.098
        42.000          25.0004
 119851676.809 8  93390930.17145  22807006.093    22807006.933    22807008.993
        48.000          33.0004
 13  2  4  9 59 30.0000000  0 15G01R06G32R19R15R20G23G20R04G11R05R21
                                R14G19G31
 106110732.442 8  82683693.20847  20192204.482    20192203.981    20192209.242
        52.000          45.0004
 116262632.063 7  90426510.460 6  21787550.972    21787551.921    21787552.934
        46.000          41.000
 109232769.287 8  85116446.33146  20786306.778    20786306.062    20786309.106
        52.000          40.0004
 116996304.808 7  90997114.464 6  21871226.485    21871225.453    21871227.913
        44.000          40.000
 124016589.252 6  96457356.170 5  23208002.245    23208001.910    23208005.251
        39.000          34.000
 105667142.079 7  82185556.928 7  19760283.925    19760283.965    19760286.365
        43.000          46.000
 118915697.998 8  92661610.23645  22628892.008    22628892.064    22628893.125
        49.000          33.0004
 110091546.801 8  85785628.09046  20949723.987    20949723.778    20949726.244
        50.000          39.0004
 118876530.164 7  92459513.982 6  22199356.572    22199356.705    22199356.761
        45.000          40.000
 108599482.996 8  84622976.06646  20665799.739    20665799.061    20665800.863
        49.000          41.0004
 106361679.788 8  82725747.448 7  19897145.890    19897146.173    19897147.798
        50.000          46.000
 115468839.512 7  89809105.431 5  21578106.147    21578106.278    21578107.079
        43.000          34.000
 120665875.267 6  93851239.767 5  22636593.370                    22636602.491
        39.000          32.000
 128285684.182 6  99962863.32344  24411967.008    24411965.123    24411969.835
        41.000          25.0004
 119776863.520 7  93332634.13445  22792769.479    22792770.297    22792772.783
        47.000          33.0004
 13  2  4 10  0  0.0000000  0 15G01R06G32R19R15R20G23G20R04G11R05R21
                                R14G19G31
 106067676.100 8  82650142.80547  20184011.335    20184010.877    20184015.633
        51.000          44.0004
 116162684.364 7  90348773.454 6  21768821.337    21768820.860    21768822.281
        45.000          41.000
 109215163.307 8  85102727.36746  20782956.471    20782956.350    20782958.770
        51.000          41.0004
 117087964.199 7  91068404.985 6  21888361.609    21888360.943    21888362.938
        45.000          40.000
 123874912.576 6  96347163.279 5  23181487.581    23181487.725    23181492.135
        39.000          34.000
 105657821.154 7  82178307.294 7  19758540.886    19758541.027    19758543.101
        44.000          45.000
 118793052.045 8  92566042.01945  22605553.312    22605553.026    22605554.392
        48.000          33.0004
 110018012.421 8  85728328.58746  20935731.153    20935730.566    20935732.948
        48.000          38.0004
 118926997.541 7  92498766.311 6  22208781.396    22208781.437    22208781.518
        44.000          40.000
 108615811.853 8  84635699.82346  20668906.449    20668906.376    20668908.257
        49.000          41.0004
 106344456.433 8  82712351.509 7  19893924.157    19893924.346    19893925.667
        50.000          45.000
 115348513.188 7  89715518.358 5  21555620.831    21555620.414    21555620.391
        44.000          34.000
 120608744.779 6  93806804.936 5  22625877.827                    22625884.816
        40.000          32.000
 128359971.002 7 100020748.97344  24426102.982    24426101.950    24426106.543
        43.000          25.0004
 119702546.718 8  93274724.95945  22778627.771    22778628.200    22778631.209
        48.000          33.0004
